$GPZDA,090555.00,17,03,2020,,*6F
$GPGGA,090555.00,4923.07493,N,00104.57621,E,4,11,0.9,58.08,M,47.08,M,1.0,4095*72
$GPGST,090555.00,0.365,0.011,0.009,359.435,0.011,0.009,0.018*5F
$GPZDA,090556.00,17,03,2020,,*6C
$GPGGA,090556.00,4923.07493,N,00104.57621,E,4,11,0.9,58.08,M,47.08,M,1.0,4095*71
$GPGST,090556.00,0.377,0.011,0.009,359.482,0.011,0.009,0.018*53
$GPZDA,090557.00,17,03,2020,,*6D
$GPGGA,090557.00,4923.07493,N,00104.57621,E,4,11,0.9,58.08,M,47.08,M,1.0,4095*70
$GPGST,090557.00,0.519,0.011,0.009,358.363,0.011,0.009,0.019*54
$GPZDA,090558.00,17,03,2020,,*62
$GPGGA,090558.00,4923.07493,N,00104.57621,E,4,11,0.9,58.08,M,47.08,M,1.0,4095*7F
$GPGST,090558.00,0.304,0.011,0.009,358.227,0.011,0.009,0.018*51
$GPZDA,090559.00,17,03,2020,,*63
$GPGGA,090559.00,4923.07493,N,00104.57621,E,4,11,0.9,58.07,M,47.08,M,1.0,4095*71
$GPGST,090559.00,0.436,0.011,0.009,359.135,0.011,0.009,0.018*57
$GPZDA,090600.00,17,03,2020,,*6C
$GPGGA,090600.00,4923.07493,N,00104.57621,E,4,11,0.9,58.08,M,47.08,M,1.0,4095*71
$GPGST,090600.00,0.634,0.011,0.009,358.098,0.011,0.009,0.018*5F
$GPZDA,090601.00,17,03,2020,,*6D
$GPGGA,090601.00,4923.07493,N,00104.57621,E,4,11,0.9,58.08,M,47.08,M,1.0,4095*70
$GPGST,090601.00,0.536,0.011,0.009,358.225,0.011,0.009,0.018*5B
$GPZDA,090602.00,17,03,2020,,*6E
$GPGGA,090602.00,4923.07493,N,00104.57620,E,4,11,0.9,58.08,M,47.08,M,1.0,4095*72
$GPGST,090602.00,0.504,0.011,0.009,358.413,0.011,0.009,0.018*5A
$GPZDA,090603.00,17,03,2020,,*6F
$GPGGA,090603.00,4923.07493,N,00104.57621,E,4,11,0.9,58.08,M,47.08,M,1.0,4095*72
$GPGST,090603.00,0.385,0.011,0.009,358.515,0.011,0.009,0.018*53
$GPZDA,090604.00,17,03,2020,,*68
$GPGGA,090604.00,4923.07493,N,00104.57621,E,4,11,0.9,58.07,M,47.08,M,1.0,4095*7A
$GPGST,090604.00,0.476,0.011,0.009,357.873,0.011,0.009,0.019*5C
$GPZDA,090605.00,17,03,2020,,*69
$GPGGA,090605.00,4923.07493,N,00104.57621,E,4,11,0.9,58.07,M,47.08,M,1.0,4095*7B
$GPGST,090605.00,0.442,0.011,0.009,357.982,0.011,0.009,0.019*55
$GPZDA,090606.00,17,03,2020,,*6A
$GPGGA,090606.00,4923.07493,N,00104.57621,E,4,10,0.9,58.07,M,47.08,M,1.0,4095*79
$GPGST,090606.00,0.290,0.011,0.009,351.988,0.011,0.009,0.019*53
$GPZDA,090607.00,17,03,2020,,*6B
$GPGGA,090607.00,4923.07493,N,00104.57621,E,4,10,0.9,58.08,M,47.08,M,1.0,4095*77
$GPGST,090607.00,0.290,0.012,0.009,347.055,0.012,0.009,0.019*5C
$GPZDA,090608.00,17,03,2020,,*64
$GPGGA,090608.00,4923.07493,N,00104.57620,E,4,10,0.9,58.08,M,47.08,M,1.0,4095*79
$GPGST,090608.00,0.409,0.012,0.009,346.591,0.012,0.009,0.019*59
$GPZDA,090609.00,17,03,2020,,*65
$GPGGA,090609.00,4923.07493,N,00104.57620,E,4,10,0.9,58.08,M,47.08,M,1.0,4095*78
$GPGST,090609.00,0.385,0.012,0.009,346.228,0.012,0.009,0.019*5E
$GPZDA,090610.00,17,03,2020,,*6D
$GPGGA,090610.00,4923.07493,N,00104.57620,E,4,10,0.9,58.08,M,47.08,M,1.0,4095*70
$GPGST,090610.00,0.250,0.012,0.009,347.490,0.012,0.009,0.019*5B
$GPZDA,090611.00,17,03,2020,,*6C
$GPGGA,090611.00,4923.07493,N,00104.57621,E,4,10,0.9,58.07,M,47.08,M,1.0,4095*7F
$GPGST,090611.00,0.337,0.013,0.009,347.298,0.012,0.009,0.019*55
$GPZDA,090612.00,17,03,2020,,*6F
$GPGGA,090612.00,4923.07493,N,00104.57621,E,4,10,0.9,58.08,M,47.08,M,1.0,4095*73
$GPGST,090612.00,0.285,0.012,0.009,347.268,0.012,0.009,0.019*50
$GPZDA,090613.00,17,03,2020,,*6E
$GPGGA,090613.00,4923.07493,N,00104.57621,E,4,10,0.9,58.07,M,47.08,M,1.0,4095*7D
$GPGST,090613.00,0.147,0.012,0.009,347.073,0.012,0.009,0.019*54
$GPZDA,090614.00,17,03,2020,,*69
$GPGGA,090614.00,4923.07493,N,00104.57620,E,4,10,0.9,58.08,M,47.08,M,1.0,4095*74
$GPGST,090614.00,0.207,0.013,0.009,347.130,0.012,0.009,0.019*53
$GPZDA,090615.00,17,03,2020,,*68
$GPGGA,090615.00,4923.07493,N,00104.57620,E,4,10,0.9,58.07,M,47.08,M,1.0,4095*7A
$GPGST,090615.00,0.222,0.013,0.009,347.421,0.012,0.009,0.020*5A
$GPZDA,090616.00,17,03,2020,,*6B
$GPGGA,090616.00,4923.07498,N,00104.57625,E,4,10,0.9,58.06,M,47.08,M,1.0,4095*76
$GPGST,090616.00,0.273,0.012,0.009,348.422,0.012,0.009,0.019*5A
$GPZDA,090617.00,17,03,2020,,*6A
$GPGGA,090617.00,4923.07555,N,00104.57671,E,4,10,0.9,58.04,M,47.08,M,1.0,4095*74
$GPGST,090617.00,0.217,0.011,0.009,352.975,0.011,0.009,0.019*5D
$GPZDA,090618.00,17,03,2020,,*65
$GPGGA,090618.00,4923.07683,N,00104.57783,E,4,10,0.9,58.05,M,47.08,M,1.0,4095*7E
$GPGST,090618.00,0.246,0.012,0.009,348.112,0.012,0.009,0.019*54
$GPZDA,090619.00,17,03,2020,,*64
$GPGGA,090619.00,4923.07805,N,00104.57888,E,4,08,1.4,58.07,M,47.08,M,1.0,4095*7C
$GPGST,090619.00,0.230,0.013,0.009,347.051,0.013,0.009,0.021*56
$GPZDA,090620.00,17,03,2020,,*6E
$GPGGA,090620.00,4923.07874,N,00104.57946,E,4,07,1.6,58.08,M,47.08,M,1.0,4095*71
$GPGST,090620.00,0.126,0.015,0.011,348.282,0.015,0.011,0.025*5F
$GPZDA,090621.00,17,03,2020,,*6F
$GPGGA,090621.00,4923.07953,N,00104.57995,E,4,07,1.6,58.11,M,47.08,M,1.0,4095*72
$GPGST,090621.00,0.215,0.016,0.010,347.972,0.016,0.011,0.026*54
$GPZDA,090622.00,17,03,2020,,*6C
$GPGGA,090622.00,4923.08105,N,00104.58024,E,4,07,1.6,58.24,M,47.08,M,1.0,4095*7F
$GPGST,090622.00,0.253,0.016,0.010,349.964,0.016,0.011,0.024*5E
$GPZDA,090623.00,17,03,2020,,*6D
$GPGGA,090623.00,4923.08297,N,00104.57938,E,4,08,1.4,58.34,M,47.08,M,1.0,4095*71
$GPGST,090623.00,0.236,0.020,0.013,350.515,0.020,0.013,0.031*5B
$GPZDA,090624.00,17,03,2020,,*6A
$GPGGA,090624.00,4923.08462,N,00104.57714,E,4,09,1.1,58.45,M,47.08,M,1.0,4095*78
$GPGST,090624.00,0.252,0.018,0.012,341.063,0.018,0.013,0.026*5D
$GPZDA,090625.00,17,03,2020,,*6B
$GPGGA,090625.00,4923.08615,N,00104.57358,E,4,05,4.7,58.58,M,47.08,M,1.0,4095*74
$GPGST,090625.00,0.056,0.025,0.012,7.453,0.025,0.012,0.044*59
$GPZDA,090626.00,17,03,2020,,*68
$GPGGA,090626.00,4923.08774,N,00104.56895,E,5,05,4.7,58.72,M,47.08,M,1.0,4095*73
$GPGST,090626.00,0.243,0.059,0.011,12.179,0.058,0.017,0.103*60
$GPZDA,090627.00,17,03,2020,,*69
$GPGGA,090627.00,4923.08955,N,00104.56325,E,4,06,4.7,59.00,M,47.08,M,1.0,4095*79
$GPGST,090627.00,0.735,0.052,0.013,10.779,0.051,0.016,0.082*68
$GPZDA,090628.00,17,03,2020,,*66
$GPGGA,090628.00,4923.09164,N,00104.55646,E,4,06,4.7,59.22,M,47.08,M,1.0,4095*7E
$GPGST,090628.00,0.341,0.049,0.013,10.555,0.048,0.016,0.079*6A
$GPZDA,090629.00,17,03,2020,,*67
$GPGGA,090629.00,4923.09396,N,00104.54901,E,4,07,1.4,59.52,M,47.08,M,1.0,4095*7D
$GPGST,090629.00,0.678,0.046,0.013,9.579,0.046,0.015,0.074*5D
$GPZDA,090630.00,17,03,2020,,*6F
$GPGGA,090630.00,4923.09636,N,00104.54154,E,4,06,4.7,59.82,M,47.08,M,1.0,4095*78
$GPGST,090630.00,0.463,0.048,0.013,10.660,0.048,0.016,0.079*60
$GPZDA,090631.00,17,03,2020,,*6E
$GPGGA,090631.00,4923.09895,N,00104.53349,E,4,06,4.7,60.12,M,47.08,M,1.0,4095*74
$GPGST,090631.00,0.322,0.052,0.013,11.036,0.052,0.017,0.085*65
$GPZDA,090632.00,17,03,2020,,*6D
$GPGGA,090632.00,4923.10174,N,00104.52488,E,4,06,4.7,60.44,M,47.08,M,1.0,4095*71
$GPGST,090632.00,0.256,0.053,0.013,10.872,0.052,0.017,0.086*6F
$GPZDA,090633.00,17,03,2020,,*6C
$GPGGA,090633.00,4923.10459,N,00104.51619,E,4,06,4.7,60.85,M,47.08,M,1.0,4095*7E
$GPGST,090633.00,0.315,0.046,0.013,11.033,0.045,0.016,0.066*69
$GPZDA,090634.00,17,03,2020,,*6B
$GPGGA,090634.00,4923.10736,N,00104.50774,E,4,07,2.8,61.14,M,47.08,M,1.0,4095*79
$GPGST,090634.00,0.270,0.051,0.013,10.950,0.051,0.016,0.082*68
$GPZDA,090635.00,17,03,2020,,*6A
$GPGGA,090635.00,4923.10998,N,00104.49960,E,4,07,2.8,61.48,M,47.08,M,1.0,4095*78
$GPGST,090635.00,0.331,0.042,0.013,11.147,0.042,0.015,0.056*68
$GPZDA,090636.00,17,03,2020,,*69
$GPGGA,090636.00,4923.11236,N,00104.49190,E,4,06,4.7,61.76,M,47.08,M,1.0,4095*77
$GPGST,090636.00,0.478,0.043,0.013,11.250,0.042,0.016,0.061*62
$GPZDA,090637.00,17,03,2020,,*68
$GPGGA,090637.00,4923.11430,N,00104.48493,E,4,06,4.7,61.95,M,47.08,M,1.0,4095*7C
$GPGST,090637.00,0.361,0.054,0.013,11.063,0.053,0.017,0.085*63
$GPZDA,090638.00,17,03,2020,,*67
$GPGGA,090638.00,4923.11567,N,00104.47875,E,4,06,4.6,62.10,M,47.08,M,1.0,4095*74
$GPGST,090638.00,0.705,0.053,0.013,10.761,0.052,0.016,0.087*6B
$GPZDA,090639.00,17,03,2020,,*66
$GPGGA,090639.00,4923.11654,N,00104.47373,E,4,06,3.4,62.34,M,47.08,M,1.0,4095*78
$GPGST,090639.00,0.157,0.050,0.015,10.262,0.049,0.017,0.075*6E
$GPZDA,090640.00,17,03,2020,,*68
$GPGGA,090640.00,4923.11701,N,00104.46974,E,4,05,5.1,62.61,M,47.08,M,1.0,4095*7B
$GPGST,090640.00,0.212,0.051,0.024,11.086,0.050,0.025,0.080*6B
$GPZDA,090641.00,17,03,2020,,*69
$GPGGA,090641.00,4923.11727,N,00104.46665,E,5,05,5.1,62.73,M,47.08,M,1.0,4095*73
$GPGST,090641.00,0.200,0.068,0.025,15.883,0.065,0.030,0.128*6A
$GPZDA,090642.00,17,03,2020,,*6A
$GPGGA,090642.00,4923.11730,N,00104.46434,E,2,12,0.8,62.68,M,47.08,M,1.0,4095*77
$GPGST,090642.00,1.351,1.593,0.573,354.173,1.586,0.593,1.673*56
$GPZDA,090643.00,17,03,2020,,*6B
$GPGGA,090643.00,4923.11728,N,00104.46165,E,5,05,4.7,62.72,M,47.08,M,1.0,4095*7F
$GPGST,090643.00,0.656,0.252,0.026,27.723,0.223,0.119,0.733*65
$GPZDA,090644.00,17,03,2020,,*6C
$GPGGA,090644.00,4923.11708,N,00104.45796,E,5,05,4.6,62.58,M,47.08,M,1.0,4095*7A
$GPGST,090644.00,0.338,0.253,0.026,27.368,0.225,0.118,0.732*63
$GPZDA,090645.00,17,03,2020,,*6D
$GPGGA,090645.00,4923.11679,N,00104.45395,E,5,05,4.6,62.69,M,47.08,M,1.0,4095*79
$GPGST,090645.00,0.090,0.251,0.026,27.374,0.223,0.118,0.725*6C
$GPZDA,090646.00,17,03,2020,,*6E
$GPGGA,090646.00,4923.11650,N,00104.44984,E,5,05,4.6,62.65,M,47.08,M,1.0,4095*76
$GPGST,090646.00,0.357,0.249,0.026,27.423,0.221,0.117,0.721*62
$GPZDA,090647.00,17,03,2020,,*6F
$GPGGA,090647.00,4923.11643,N,00104.44528,E,5,05,4.6,62.84,M,47.08,M,1.0,4095*70
$GPGST,090647.00,0.075,0.248,0.026,27.394,0.221,0.117,0.718*60
$GPZDA,090648.00,17,03,2020,,*60
$GPGGA,090648.00,4923.11669,N,00104.43993,E,5,05,4.6,62.89,M,47.08,M,1.0,4095*71
$GPGST,090648.00,0.223,0.247,0.026,27.442,0.220,0.116,0.715*60
$GPZDA,090649.00,17,03,2020,,*61
$GPGGA,090649.00,4923.11722,N,00104.43308,E,5,05,4.6,63.06,M,47.08,M,1.0,4095*70
$GPGST,090649.00,0.171,0.247,0.026,27.457,0.219,0.116,0.714*6A
$GPZDA,090650.00,17,03,2020,,*69
$GPGGA,090650.00,4923.11767,N,00104.42534,E,5,06,4.6,63.31,M,47.08,M,1.0,4095*76
$GPGST,090650.00,0.419,0.242,0.022,27.715,0.214,0.114,0.704*63
$GPZDA,090651.00,17,03,2020,,*68
$GPGGA,090651.00,4923.11796,N,00104.41708,E,5,05,4.6,63.63,M,47.08,M,1.0,4095*73
$GPGST,090651.00,0.333,0.241,0.022,27.771,0.213,0.114,0.701*6E
$GPZDA,090652.00,17,03,2020,,*6B
$GPGGA,090652.00,4923.11811,N,00104.40780,E,5,05,4.6,63.93,M,47.08,M,1.0,4095*7E
$GPGST,090652.00,0.195,0.242,0.025,27.584,0.215,0.114,0.701*69
$GPZDA,090653.00,17,03,2020,,*6A
$GPGGA,090653.00,4923.11811,N,00104.39777,E,5,05,4.6,64.22,M,47.08,M,1.0,4095*74
$GPGST,090653.00,0.049,0.242,0.026,27.514,0.215,0.114,0.700*63
$GPZDA,090654.00,17,03,2020,,*6D
$GPGGA,090654.00,4923.11810,N,00104.38778,E,5,05,4.6,64.45,M,47.08,M,1.0,4095*7D
$GPGST,090654.00,0.066,0.239,0.023,27.715,0.212,0.113,0.696*6D
$GPZDA,090655.00,17,03,2020,,*6C
$GPGGA,090655.00,4923.11809,N,00104.37743,E,5,05,4.6,64.67,M,47.08,M,1.0,4095*73
$GPGST,090655.00,0.146,0.233,0.022,27.821,0.207,0.111,0.681*6C
$GPZDA,090656.00,17,03,2020,,*6F
$GPGGA,090656.00,4923.11809,N,00104.36666,E,5,06,3.5,64.94,M,47.08,M,1.0,4095*7C
$GPGST,090656.00,0.139,0.222,0.022,27.815,0.197,0.105,0.647*65
$GPZDA,090657.00,17,03,2020,,*6E
$GPGGA,090657.00,4923.11816,N,00104.35572,E,4,07,2.8,65.51,M,47.08,M,1.0,4095*72
$GPGST,090657.00,0.096,0.042,0.015,10.922,0.041,0.017,0.056*6F
$GPZDA,090658.00,17,03,2020,,*61
$GPGGA,090658.00,4923.11820,N,00104.34484,E,4,06,3.4,65.75,M,47.08,M,1.0,4095*7B
$GPGST,090658.00,0.243,0.042,0.017,10.658,0.042,0.018,0.058*68
$GPZDA,090659.00,17,03,2020,,*60
$GPGGA,090659.00,,,,,0,00,,,M,,M,,*4B
$GPGST,090659.00,,,,,,,*7A
$GPZDA,090700.00,17,03,2020,,*6D
$GPGGA,090700.00,4923.11823,N,00104.32374,E,2,11,0.9,66.19,M,47.08,M,1.0,4095*7D
$GPGST,090700.00,3.120,1.603,0.619,356.102,1.600,0.627,2.150*52
$GPZDA,090701.00,17,03,2020,,*6C
$GPGGA,090701.00,4923.11825,N,00104.31359,E,2,10,1.0,66.46,M,47.08,M,1.0,4095*75
$GPGST,090701.00,3.860,1.662,0.606,354.727,1.656,0.623,2.470*54
$GPZDA,090702.00,17,03,2020,,*6F
$GPGGA,090702.00,4923.11825,N,00104.30382,E,2,10,1.0,66.75,M,47.08,M,1.0,4095*71
$GPGST,090702.00,2.800,1.680,0.571,351.960,1.665,0.613,2.268*5B
$GPZDA,090703.00,17,03,2020,,*6E
$GPGGA,090703.00,4923.11827,N,00104.29441,E,2,10,1.0,67.10,M,47.08,M,1.0,4095*70
$GPGST,090703.00,3.027,1.624,0.622,355.858,1.620,0.631,2.670*5F
$GPZDA,090704.00,17,03,2020,,*69
$GPGGA,090704.00,4923.11845,N,00104.28569,E,2,11,0.9,67.46,M,47.08,M,1.0,4095*73
$GPGST,090704.00,2.947,1.575,0.556,352.279,1.563,0.590,2.174*50
$GPZDA,090705.00,17,03,2020,,*68
$GPGGA,090705.00,4923.11873,N,00104.27804,E,2,11,0.9,67.85,M,47.08,M,1.0,4095*71
$GPGST,090705.00,3.081,1.567,0.595,354.106,1.560,0.613,2.389*59
$GPZDA,090706.00,17,03,2020,,*6B
$GPGGA,090706.00,4923.11922,N,00104.27134,E,2,12,0.8,68.17,M,47.08,M,1.0,4095*7B
$GPGST,090706.00,3.686,1.500,0.588,354.466,1.494,0.603,2.283*55
$GPZDA,090707.00,17,03,2020,,*6A
$GPGGA,090707.00,4923.12069,N,00104.26565,E,2,12,0.8,68.38,M,47.08,M,1.0,4095*73
$GPGST,090707.00,2.918,1.538,0.567,356.131,1.535,0.575,2.048*5F
$GPZDA,090708.00,17,03,2020,,*65
$GPGGA,090708.00,4923.12358,N,00104.26158,E,5,06,2.5,68.85,M,47.08,M,1.0,4095*7C
$GPGST,090708.00,0.158,0.304,0.025,28.745,0.266,0.148,0.900*67
$GPZDA,090709.00,17,03,2020,,*64
$GPGGA,090709.00,4923.12729,N,00104.25921,E,4,07,1.6,68.52,M,47.08,M,1.0,4095*70
$GPGST,090709.00,0.572,0.019,0.011,347.582,0.018,0.012,0.029*56
$GPZDA,090710.00,17,03,2020,,*6C
$GPGGA,090710.00,4923.13156,N,00104.25813,E,4,07,1.6,68.60,M,47.08,M,1.0,4095*76
$GPGST,090710.00,0.103,0.019,0.011,347.018,0.018,0.012,0.029*5A
$GPZDA,090711.00,17,03,2020,,*6D
$GPGGA,090711.00,4923.13614,N,00104.25764,E,4,08,1.4,68.76,M,47.08,M,1.0,4095*73
$GPGST,090711.00,0.220,0.024,0.012,338.889,0.022,0.014,0.031*5A
$GPZDA,090712.00,17,03,2020,,*6E
$GPGGA,090712.00,4923.14099,N,00104.25752,E,4,05,3.3,68.85,M,47.08,M,1.0,4095*75
$GPGST,090712.00,0.128,0.036,0.016,342.843,0.034,0.018,0.039*5D
$GPZDA,090713.00,17,03,2020,,*6F
$GPGGA,090713.00,4923.14612,N,00104.25780,E,4,07,1.4,68.89,M,47.08,M,1.0,4095*75
$GPGST,090713.00,0.597,0.021,0.014,358.284,0.021,0.014,0.033*50
$GPZDA,090714.00,17,03,2020,,*68
$GPGGA,090714.00,4923.15140,N,00104.25803,E,4,08,1.4,68.96,M,47.08,M,1.0,4095*76
$GPGST,090714.00,0.463,0.021,0.015,348.217,0.020,0.016,0.034*53
$GPZDA,090715.00,17,03,2020,,*69
$GPGGA,090715.00,4923.15696,N,00104.25819,E,4,08,1.4,68.78,M,47.08,M,1.0,4095*70
$GPGST,090715.00,0.364,0.021,0.015,349.729,0.021,0.016,0.033*5D
$GPZDA,090716.00,17,03,2020,,*6A
$GPGGA,090716.00,4923.16283,N,00104.25847,E,4,06,1.7,68.77,M,47.08,M,1.0,4095*79
$GPGST,090716.00,0.298,0.026,0.017,12.306,0.026,0.018,0.047*67
$GPZDA,090717.00,17,03,2020,,*6B
$GPGGA,090717.00,4923.16861,N,00104.25888,E,4,06,1.7,68.46,M,47.08,M,1.0,4095*7F
$GPGST,090717.00,0.473,0.031,0.019,4.732,0.031,0.020,0.041*52
$GPZDA,090718.00,17,03,2020,,*64
$GPGGA,090718.00,4923.17432,N,00104.25922,E,5,06,2.0,68.32,M,47.08,M,1.0,4095*7C
$GPGST,090718.00,0.301,0.055,0.019,12.078,0.053,0.022,0.094*6D
$GPZDA,090719.00,17,03,2020,,*65
$GPGGA,090719.00,4923.17975,N,00104.25961,E,4,06,2.0,68.16,M,47.08,M,1.0,4095*73
$GPGST,090719.00,0.375,0.037,0.016,356.720,0.036,0.016,0.052*53
$GPZDA,090720.00,17,03,2020,,*6F
$GPGGA,090720.00,4923.18506,N,00104.26012,E,4,06,2.0,68.12,M,47.08,M,1.0,4095*74
$GPGST,090720.00,0.433,0.034,0.014,354.133,0.033,0.015,0.046*58
$GPZDA,090721.00,17,03,2020,,*6E
$GPGGA,090721.00,4923.19023,N,00104.26062,E,4,08,1.3,67.90,M,47.08,M,1.0,4095*7A
$GPGST,090721.00,0.502,0.024,0.011,354.211,0.024,0.012,0.033*5E
$GPZDA,090722.00,17,03,2020,,*6D
$GPGGA,090722.00,4923.19541,N,00104.26088,E,4,08,1.3,67.72,M,47.08,M,1.0,4095*70
$GPGST,090722.00,0.361,0.019,0.014,3.455,0.019,0.014,0.034*5D
$GPZDA,090723.00,17,03,2020,,*6C
$GPGGA,090723.00,4923.20062,N,00104.26178,E,4,07,1.6,67.42,M,47.08,M,1.0,4095*78
$GPGST,090723.00,0.128,0.020,0.015,350.208,0.020,0.015,0.035*59
$GPZDA,090724.00,17,03,2020,,*6B
$GPGGA,090724.00,4923.20608,N,00104.26287,E,4,08,1.4,67.11,M,47.08,M,1.0,4095*7D
$GPGST,090724.00,0.444,0.019,0.015,350.331,0.019,0.015,0.034*5B
$GPZDA,090725.00,17,03,2020,,*6A
$GPGGA,090725.00,4923.21169,N,00104.26389,E,4,08,1.4,66.82,M,47.08,M,1.0,4095*79
$GPGST,090725.00,0.309,0.019,0.016,339.413,0.019,0.016,0.034*5C
$GPZDA,090726.00,17,03,2020,,*69
$GPGGA,090726.00,4923.21731,N,00104.26479,E,4,08,1.4,66.53,M,47.08,M,1.0,4095*75
$GPGST,090726.00,0.281,0.019,0.016,343.838,0.019,0.016,0.035*57
$GPZDA,090727.00,17,03,2020,,*68
$GPGGA,090727.00,4923.22280,N,00104.26560,E,4,08,1.4,66.04,M,47.08,M,1.0,4095*73
$GPGST,090727.00,0.429,0.020,0.013,342.353,0.019,0.014,0.031*5C
$GPZDA,090728.00,17,03,2020,,*67
$GPGGA,090728.00,4923.22777,N,00104.26638,E,4,07,1.6,65.65,M,47.08,M,1.0,4095*76
$GPGST,090728.00,0.523,0.021,0.017,348.084,0.021,0.017,0.037*50
$GPZDA,090729.00,17,03,2020,,*66
$GPGGA,090729.00,4923.23187,N,00104.26705,E,4,07,1.6,65.27,M,47.08,M,1.0,4095*76
$GPGST,090729.00,0.471,0.024,0.016,351.507,0.024,0.017,0.040*50
$GPZDA,090730.00,17,03,2020,,*6E
$GPGGA,090730.00,,,,,0,00,,,M,,M,,*45
$GPGST,090730.00,,,,,,,*74
$GPZDA,090731.00,17,03,2020,,*6F
$GPGGA,090731.00,4923.23861,N,00104.26802,E,4,06,2.0,64.64,M,47.08,M,1.0,4095*74
$GPGST,090731.00,0.187,0.044,0.019,3.608,0.044,0.019,0.070*5F
$GPZDA,090732.00,17,03,2020,,*6C
$GPGGA,090732.00,4923.24248,N,00104.26856,E,5,05,4.5,64.44,M,47.08,M,1.0,4095*73
$GPGST,090732.00,0.144,0.075,0.022,12.175,0.074,0.026,0.131*6F
$GPZDA,090733.00,17,03,2020,,*6D
$GPGGA,090733.00,4923.24711,N,00104.26903,E,2,12,0.8,63.96,M,47.08,M,1.0,4095*7A
$GPGST,090733.00,1.872,0.716,0.408,349.709,0.709,0.421,1.060*57
$GPZDA,090734.00,17,03,2020,,*6A
$GPGGA,090734.00,4923.25240,N,00104.26986,E,2,12,0.8,63.33,M,47.08,M,1.0,4095*7F
$GPGST,090734.00,3.052,1.208,1.015,1.820,1.208,1.015,1.761*50
$GPZDA,090735.00,17,03,2020,,*6B
$GPGGA,090735.00,4923.25826,N,00104.27098,E,2,12,0.8,62.75,M,47.08,M,1.0,4095*70
$GPGST,090735.00,2.518,1.371,0.764,340.232,1.316,0.855,1.909*58
$GPZDA,090736.00,17,03,2020,,*68
$GPGGA,090736.00,4923.26487,N,00104.27205,E,2,12,0.8,62.11,M,47.08,M,1.0,4095*73
$GPGST,090736.00,1.921,1.230,0.561,347.442,1.206,0.610,1.681*5B
$GPZDA,090737.00,17,03,2020,,*69
$GPGGA,090737.00,4923.27198,N,00104.27319,E,5,06,2.0,61.43,M,47.08,M,1.0,4095*78
$GPGST,090737.00,0.160,0.230,0.027,29.059,0.202,0.114,0.685*66
$GPZDA,090738.00,17,03,2020,,*66
$GPGGA,090738.00,4923.27937,N,00104.27448,E,4,06,2.0,61.28,M,47.08,M,1.0,4095*75
$GPGST,090738.00,0.348,0.035,0.016,355.740,0.035,0.016,0.049*50
$GPZDA,090739.00,17,03,2020,,*67
$GPGGA,090739.00,4923.28660,N,00104.27558,E,5,05,4.4,60.79,M,47.08,M,1.0,4095*73
$GPGST,090739.00,0.445,0.058,0.020,5.708,0.057,0.020,0.094*5E
$GPZDA,090740.00,17,03,2020,,*69
$GPGGA,090740.00,4923.29375,N,00104.27670,E,5,05,4.4,60.50,M,47.08,M,1.0,4095*7F
$GPGST,090740.00,0.260,0.066,0.018,11.779,0.065,0.022,0.115*6F
$GPZDA,090741.00,17,03,2020,,*68
$GPGGA,090741.00,4923.30084,N,00104.27776,E,5,05,4.4,60.21,M,47.08,M,1.0,4095*7A
$GPGST,090741.00,0.631,0.067,0.019,11.502,0.066,0.023,0.114*63
$GPZDA,090742.00,17,03,2020,,*6B
$GPGGA,090742.00,4923.30791,N,00104.27897,E,5,05,4.4,59.96,M,47.08,M,1.0,4095*7C
$GPGST,090742.00,0.363,0.068,0.019,11.160,0.067,0.023,0.116*6E
$GPZDA,090743.00,17,03,2020,,*6A
$GPGGA,090743.00,4923.31491,N,00104.28028,E,4,07,1.6,59.77,M,47.08,M,1.0,4095*77
$GPGST,090743.00,0.368,0.021,0.017,346.760,0.021,0.017,0.037*57
$GPZDA,090744.00,17,03,2020,,*6D
$GPGGA,090744.00,4923.32177,N,00104.28169,E,4,07,1.6,59.64,M,47.08,M,1.0,4095*78
$GPGST,090744.00,0.148,0.022,0.014,345.606,0.021,0.015,0.035*52
$GPZDA,090745.00,17,03,2020,,*6C
$GPGGA,090745.00,,,,,0,00,,,M,,M,,*47
$GPGST,090745.00,,,,,,,*76
$GPZDA,090746.00,17,03,2020,,*6F
$GPGGA,090746.00,4923.33574,N,00104.28435,E,1,05,2.3,56.53,M,47.08,M,,*5D
$GPGST,090746.00,4.834,25.907,8.087,329.260,22.648,14.956,71.525*53
$GPZDA,090747.00,17,03,2020,,*6E
$GPGGA,090747.00,4923.34203,N,00104.28618,E,1,09,1.0,59.38,M,47.08,M,,*5F
$GPGST,090747.00,2.828,19.359,8.950,311.384,14.453,15.683,33.038*50
$GPZDA,090748.00,17,03,2020,,*61
$GPGGA,090748.00,4923.34893,N,00104.28734,E,1,11,0.9,59.98,M,47.08,M,,*57
$GPGST,090748.00,1.744,5.977,3.546,39.418,5.137,4.680,8.582*61
$GPZDA,090749.00,17,03,2020,,*60
$GPGGA,090749.00,4923.35577,N,00104.28852,E,1,12,0.8,60.42,M,47.08,M,,*50
$GPGST,090749.00,0.938,4.843,4.389,42.429,4.642,4.601,10.159*59
$GPZDA,090750.00,17,03,2020,,*68
$GPGGA,090750.00,4923.36228,N,00104.28971,E,1,12,0.8,60.73,M,47.08,M,,*54
$GPGST,090750.00,0.677,4.815,4.395,40.635,4.642,4.578,10.168*59
$GPZDA,090751.00,17,03,2020,,*69
$GPGGA,090751.00,4923.36801,N,00104.29075,E,1,12,0.8,61.15,M,47.08,M,,*59
$GPGST,090751.00,0.818,5.439,2.536,333.045,4.982,3.345,8.837*55
$GPZDA,090752.00,17,03,2020,,*6A
$GPGGA,090752.00,4923.37270,N,00104.29159,E,2,12,0.8,61.88,M,47.08,M,1.0,4095*78
$GPGST,090752.00,0.628,1.255,0.500,348.851,1.235,0.547,1.474*52
$GPZDA,090753.00,17,03,2020,,*6B
$GPGGA,090753.00,4923.37631,N,00104.29241,E,2,12,0.8,62.46,M,47.08,M,1.0,4095*73
$GPGST,090753.00,0.759,1.554,0.829,353.835,1.548,0.841,2.411*5A
$GPZDA,090754.00,17,03,2020,,*6C
$GPGGA,090754.00,4923.37855,N,00104.29347,E,2,12,0.8,62.69,M,47.08,M,1.0,4095*72
$GPGST,090754.00,0.695,1.437,0.568,344.449,1.393,0.669,1.778*5A
$GPZDA,090755.00,17,03,2020,,*6D
$GPGGA,090755.00,4923.37971,N,00104.29415,E,5,06,2.5,62.47,M,47.08,M,1.0,4095*75
$GPGST,090755.00,0.257,1.119,0.615,350.069,1.107,0.636,1.606*5F
$GPZDA,090756.00,17,03,2020,,*6E
$GPGGA,090756.00,4923.38013,N,00104.29423,E,5,07,1.6,61.94,M,47.08,M,1.0,4095*7D
$GPGST,090756.00,0.122,0.513,0.016,13.960,0.498,0.125,0.300*66
$GPZDA,090757.00,17,03,2020,,*6F
$GPGGA,090757.00,4923.37979,N,00104.29412,E,4,07,1.6,62.45,M,47.08,M,1.0,4095*7A
$GPGST,090757.00,0.294,0.017,0.010,346.012,0.016,0.010,0.025*50
$GPZDA,090758.00,17,03,2020,,*60
$GPGGA,090758.00,4923.37997,N,00104.29423,E,4,08,1.4,62.45,M,47.08,M,1.0,4095*7A
$GPGST,090758.00,0.305,0.018,0.009,339.839,0.017,0.011,0.025*58
$GPZDA,090759.00,17,03,2020,,*61
$GPGGA,090759.00,4923.38049,N,00104.29459,E,4,07,1.6,62.52,M,47.08,M,1.0,4095*78
$GPGST,090759.00,0.262,0.017,0.010,342.162,0.017,0.011,0.025*55
$GPZDA,090800.00,17,03,2020,,*62
$GPGGA,090800.00,4923.38074,N,00104.29479,E,4,08,1.4,62.53,M,47.08,M,1.0,4095*7B
$GPGST,090800.00,0.318,0.017,0.010,343.211,0.017,0.010,0.025*5D
$GPZDA,090801.00,17,03,2020,,*63
$GPGGA,090801.00,4923.38078,N,00104.29481,E,4,08,1.4,62.53,M,47.08,M,1.0,4095*71
$GPGST,090801.00,0.386,0.020,0.011,339.429,0.019,0.012,0.029*5E
$GPZDA,090802.00,17,03,2020,,*60
$GPGGA,090802.00,4923.38078,N,00104.29481,E,4,08,1.4,62.52,M,47.08,M,1.0,4095*73
$GPGST,090802.00,0.246,0.018,0.009,340.816,0.017,0.011,0.025*5D
$GPZDA,090803.00,17,03,2020,,*61
$GPGGA,090803.00,4923.38079,N,00104.29481,E,4,08,1.4,62.52,M,47.08,M,1.0,4095*73
$GPGST,090803.00,0.439,0.018,0.009,340.614,0.017,0.011,0.025*5E
$GPZDA,090804.00,17,03,2020,,*66
$GPGGA,090804.00,4923.38078,N,00104.29481,E,4,08,1.4,62.53,M,47.08,M,1.0,4095*74
$GPGST,090804.00,0.312,0.019,0.011,339.424,0.018,0.012,0.028*51
$GPZDA,090805.00,17,03,2020,,*67
$GPGGA,090805.00,4923.38088,N,00104.29488,E,4,08,1.4,62.56,M,47.08,M,1.0,4095*76
$GPGST,090805.00,0.233,0.017,0.009,340.141,0.017,0.010,0.024*5C
$GPZDA,090806.00,17,03,2020,,*64
$GPGGA,090806.00,4923.38154,N,00104.29547,E,4,08,1.4,62.57,M,47.08,M,1.0,4095*76
$GPGST,090806.00,0.219,0.017,0.009,340.339,0.017,0.010,0.024*5A
$GPZDA,090807.00,17,03,2020,,*65
$GPGGA,090807.00,4923.38266,N,00104.29682,E,4,09,1.2,62.64,M,47.08,M,1.0,4095*78
$GPGST,090807.00,0.166,0.015,0.009,342.726,0.014,0.010,0.023*5E
$GPZDA,090808.00,17,03,2020,,*6A
$GPGGA,090808.00,4923.38401,N,00104.29904,E,4,08,1.4,62.70,M,47.08,M,1.0,4095*73
$GPGST,090808.00,0.196,0.018,0.013,343.421,0.017,0.014,0.031*59
$GPZDA,090809.00,17,03,2020,,*6B
$GPGGA,090809.00,4923.38585,N,00104.30200,E,4,08,1.4,62.75,M,47.08,M,1.0,4095*7D
$GPGST,090809.00,0.128,0.018,0.015,345.271,0.018,0.015,0.034*55
$GPZDA,090810.00,17,03,2020,,*63
$GPGGA,090810.00,4923.38793,N,00104.30531,E,4,07,1.6,62.87,M,47.08,M,1.0,4095*75
$GPGST,090810.00,0.306,0.016,0.010,342.519,0.016,0.011,0.026*5F
$GPZDA,090811.00,17,03,2020,,*62
$GPGGA,090811.00,4923.39007,N,00104.30958,E,4,08,1.4,62.90,M,47.08,M,1.0,4095*77
$GPGST,090811.00,0.318,0.016,0.011,345.376,0.016,0.011,0.026*58
$GPZDA,090812.00,17,03,2020,,*61
$GPGGA,090812.00,4923.39158,N,00104.31515,E,4,08,1.4,62.78,M,47.08,M,1.0,4095*7D
$GPGST,090812.00,0.269,0.018,0.015,345.602,0.018,0.015,0.033*5E
$GPZDA,090813.00,17,03,2020,,*60
$GPGGA,090813.00,4923.39192,N,00104.32202,E,4,08,1.8,62.68,M,47.08,M,1.0,4095*75
$GPGST,090813.00,0.644,0.024,0.013,356.034,0.024,0.013,0.036*50
$GPZDA,090814.00,17,03,2020,,*67
$GPGGA,090814.00,4923.39185,N,00104.32993,E,4,08,1.3,62.62,M,47.08,M,1.0,4095*76
$GPGST,090814.00,0.382,0.026,0.012,354.272,0.025,0.012,0.036*59
$GPZDA,090815.00,17,03,2020,,*66
$GPGGA,090815.00,4923.39194,N,00104.33826,E,4,09,1.2,62.55,M,47.08,M,1.0,4095*7D
$GPGST,090815.00,0.505,0.018,0.012,349.961,0.018,0.012,0.029*59
$GPZDA,090816.00,17,03,2020,,*65
$GPGGA,090816.00,4923.39240,N,00104.34683,E,4,09,1.2,62.42,M,47.08,M,1.0,4095*74
$GPGST,090816.00,0.372,0.015,0.009,347.087,0.015,0.009,0.023*59
$GPZDA,090817.00,17,03,2020,,*64
$GPGGA,090817.00,4923.39322,N,00104.35581,E,4,08,1.8,62.24,M,47.08,M,1.0,4095*7B
$GPGST,090817.00,0.256,0.024,0.013,354.582,0.024,0.013,0.035*5A
$GPZDA,090818.00,17,03,2020,,*6B
$GPGGA,090818.00,4923.39438,N,00104.36493,E,4,09,1.0,62.06,M,47.08,M,1.0,4095*70
$GPGST,090818.00,0.230,0.018,0.012,7.622,0.018,0.012,0.029*54
$GPZDA,090819.00,17,03,2020,,*6A
$GPGGA,090819.00,4923.39572,N,00104.37348,E,4,09,1.0,61.88,M,47.08,M,1.0,4095*7B
$GPGST,090819.00,0.270,0.017,0.012,15.463,0.017,0.012,0.026*6A
$GPZDA,090820.00,17,03,2020,,*60
$GPGGA,090820.00,4923.39709,N,00104.38090,E,4,09,1.0,61.67,M,47.08,M,1.0,4095*77
$GPGST,090820.00,0.206,0.017,0.012,15.496,0.017,0.013,0.026*6A
$GPZDA,090821.00,17,03,2020,,*61
$GPGGA,090821.00,4923.39829,N,00104.38687,E,4,10,0.9,61.48,M,47.08,M,1.0,4095*76
$GPGST,090821.00,0.419,0.016,0.012,12.474,0.016,0.012,0.026*69
$GPZDA,090822.00,17,03,2020,,*62
$GPGGA,090822.00,4923.39914,N,00104.39116,E,4,08,1.0,61.40,M,47.08,M,1.0,4095*7D
$GPGST,090822.00,0.324,0.018,0.013,8.818,0.018,0.013,0.027*5F
$GPZDA,090823.00,17,03,2020,,*63
$GPGGA,090823.00,4923.39964,N,00104.39380,E,4,07,1.4,61.35,M,47.08,M,1.0,4095*7F
$GPGST,090823.00,0.295,0.031,0.016,354.398,0.031,0.016,0.037*5D
$GPZDA,090824.00,17,03,2020,,*64
$GPGGA,090824.00,4923.39992,N,00104.39535,E,4,09,0.9,61.30,M,47.08,M,1.0,4095*7E
$GPGST,090824.00,0.407,0.017,0.013,9.929,0.017,0.013,0.028*52
$GPZDA,090825.00,17,03,2020,,*65
$GPGGA,090825.00,4923.40010,N,00104.39625,E,4,07,1.4,61.26,M,47.08,M,1.0,4095*75
$GPGST,090825.00,0.230,0.020,0.015,6.015,0.020,0.015,0.030*51
$GPZDA,090826.00,17,03,2020,,*66
$GPGGA,090826.00,4923.40018,N,00104.39667,E,4,07,2.1,61.25,M,47.08,M,1.0,4095*7D
$GPGST,090826.00,0.485,0.034,0.015,350.191,0.033,0.016,0.041*55
$GPZDA,090827.00,17,03,2020,,*67
$GPGGA,090827.00,4923.40020,N,00104.39681,E,4,09,0.9,61.23,M,47.08,M,1.0,4095*7D
$GPGST,090827.00,0.470,0.020,0.009,355.960,0.020,0.009,0.025*5B
$GPZDA,090828.00,17,03,2020,,*68
$GPGGA,090828.00,4923.40022,N,00104.39694,E,4,07,1.3,61.23,M,47.08,M,1.0,4095*71
$GPGST,090828.00,0.125,0.013,0.010,1.638,0.013,0.010,0.020*54
$GPZDA,090829.00,17,03,2020,,*69
$GPGGA,090829.00,4923.40023,N,00104.39702,E,4,09,0.9,61.23,M,47.08,M,1.0,4095*7A
$GPGST,090829.00,0.146,0.014,0.012,9.574,0.014,0.012,0.023*50
$GPZDA,090830.00,17,03,2020,,*61
$GPGGA,090830.00,4923.40024,N,00104.39704,E,4,09,0.9,61.22,M,47.08,M,1.0,4095*72
$GPGST,090830.00,0.188,0.013,0.011,7.360,0.013,0.011,0.020*54
$GPZDA,090831.00,17,03,2020,,*60
$GPGGA,090831.00,4923.40024,N,00104.39703,E,4,10,0.9,61.22,M,47.08,M,1.0,4095*7C
$GPGST,090831.00,0.417,0.013,0.010,356.275,0.013,0.010,0.020*54
$GPZDA,090832.00,17,03,2020,,*63
$GPGGA,090832.00,4923.40024,N,00104.39704,E,4,10,0.9,61.22,M,47.08,M,1.0,4095*78
$GPGST,090832.00,0.330,0.012,0.010,346.362,0.012,0.010,0.020*53
$GPZDA,090833.00,17,03,2020,,*62
$GPGGA,090833.00,4923.40027,N,00104.39721,E,4,09,0.9,61.22,M,47.08,M,1.0,4095*75
$GPGST,090833.00,0.372,0.013,0.010,349.754,0.013,0.010,0.020*5A
$GPZDA,090834.00,17,03,2020,,*65
$GPGGA,090834.00,4923.40051,N,00104.39853,E,4,07,1.3,61.19,M,47.08,M,1.0,4095*74
$GPGST,090834.00,1.030,0.019,0.016,22.726,0.018,0.016,0.028*6B
$GPZDA,090835.00,17,03,2020,,*64
$GPGGA,090835.00,4923.40100,N,00104.40120,E,4,08,1.3,61.09,M,47.08,M,1.0,4095*7D
$GPGST,090835.00,0.469,0.026,0.016,0.572,0.026,0.016,0.035*5D
$GPZDA,090836.00,17,03,2020,,*67
$GPGGA,090836.00,4923.40162,N,00104.40482,E,4,08,1.3,61.03,M,47.08,M,1.0,4095*7D
$GPGST,090836.00,0.517,0.029,0.017,356.682,0.029,0.017,0.038*57
$GPZDA,090837.00,17,03,2020,,*66
$GPGGA,090837.00,4923.40227,N,00104.40921,E,4,08,1.0,60.92,M,47.08,M,1.0,4095*70
$GPGST,090837.00,0.616,0.028,0.015,352.120,0.028,0.015,0.034*53
$GPZDA,090838.00,17,03,2020,,*69
$GPGGA,090838.00,4923.40289,N,00104.41434,E,4,07,1.9,60.81,M,47.08,M,1.0,4095*77
$GPGST,090838.00,0.480,0.034,0.016,354.941,0.034,0.016,0.042*59
$GPZDA,090839.00,17,03,2020,,*68
$GPGGA,090839.00,4923.40343,N,00104.42079,E,4,08,1.8,60.75,M,47.08,M,1.0,4095*7A
$GPGST,090839.00,0.429,0.032,0.014,356.990,0.032,0.014,0.043*54
$GPZDA,090840.00,17,03,2020,,*66
$GPGGA,090840.00,4923.40385,N,00104.42834,E,4,08,1.8,60.66,M,47.08,M,1.0,4095*7D
$GPGST,090840.00,0.188,0.028,0.010,355.829,0.028,0.010,0.033*53
$GPZDA,090841.00,17,03,2020,,*67
$GPGGA,090841.00,4923.40406,N,00104.43635,E,4,09,1.2,60.43,M,47.08,M,1.0,4095*72
$GPGST,090841.00,0.303,0.023,0.009,352.952,0.023,0.010,0.028*5B
$GPZDA,090842.00,17,03,2020,,*64
$GPGGA,090842.00,4923.40425,N,00104.44492,E,4,08,1.8,60.13,M,47.08,M,1.0,4095*76
$GPGST,090842.00,0.139,0.026,0.010,355.713,0.026,0.010,0.032*5C
$GPZDA,090843.00,17,03,2020,,*65
$GPGGA,090843.00,4923.40391,N,00104.45422,E,4,07,1.9,59.87,M,47.08,M,1.0,4095*7C
$GPGST,090843.00,0.307,0.030,0.014,357.844,0.030,0.014,0.041*59
$GPZDA,090844.00,17,03,2020,,*62
$GPGGA,090844.00,4923.40308,N,00104.46384,E,4,07,1.9,59.62,M,47.08,M,1.0,4095*78
$GPGST,090844.00,0.115,0.032,0.015,357.432,0.032,0.015,0.045*56
$GPZDA,090845.00,17,03,2020,,*63
$GPGGA,090845.00,4923.40210,N,00104.47406,E,4,07,1.9,59.43,M,47.08,M,1.0,4095*7E
$GPGST,090845.00,0.126,0.030,0.015,357.681,0.030,0.015,0.043*5B
$GPZDA,090846.00,17,03,2020,,*60
$GPGGA,090846.00,4923.40105,N,00104.48449,E,4,06,3.1,59.12,M,47.08,M,1.0,4095*71
$GPGST,090846.00,0.076,0.043,0.016,3.633,0.043,0.016,0.061*57
$GPZDA,090847.00,17,03,2020,,*61
$GPGGA,090847.00,4923.40007,N,00104.49522,E,4,07,1.9,58.87,M,47.08,M,1.0,4095*78
$GPGST,090847.00,0.543,0.026,0.009,355.839,0.026,0.010,0.032*5F
$GPZDA,090848.00,17,03,2020,,*6E
$GPGGA,090848.00,4923.39908,N,00104.50611,E,4,07,1.9,58.55,M,47.08,M,1.0,4095*7B
$GPGST,090848.00,0.235,0.030,0.010,352.270,0.030,0.011,0.033*5E
$GPZDA,090849.00,17,03,2020,,*6F
$GPGGA,090849.00,4923.39805,N,00104.51719,E,4,09,1.0,58.27,M,47.08,M,1.0,4095*7C
$GPGST,090849.00,0.206,0.025,0.010,355.595,0.025,0.010,0.030*56
$GPZDA,090850.00,17,03,2020,,*67
$GPGGA,090850.00,4923.39700,N,00104.52831,E,4,08,1.8,57.97,M,47.08,M,1.0,4095*75
$GPGST,090850.00,0.161,0.026,0.010,355.843,0.026,0.010,0.031*5B
$GPZDA,090851.00,17,03,2020,,*66
$GPGGA,090851.00,4923.39589,N,00104.53939,E,4,08,1.4,57.64,M,47.08,M,1.0,4095*7F
$GPGST,090851.00,0.192,0.023,0.010,354.067,0.023,0.010,0.030*58
$GPZDA,090852.00,17,03,2020,,*65
$GPGGA,090852.00,4923.39482,N,00104.55039,E,4,06,2.0,57.30,M,47.08,M,1.0,4095*71
$GPGST,090852.00,0.160,0.017,0.011,352.382,0.017,0.011,0.028*51
$GPZDA,090853.00,17,03,2020,,*64
$GPGGA,090853.00,4923.39378,N,00104.56128,E,4,08,1.4,56.97,M,47.08,M,1.0,4095*75
$GPGST,090853.00,0.454,0.026,0.011,350.457,0.026,0.012,0.035*50
$GPZDA,090854.00,17,03,2020,,*63
$GPGGA,090854.00,4923.39276,N,00104.57218,E,4,08,1.4,56.62,M,47.08,M,1.0,4095*76
$GPGST,090854.00,0.282,0.021,0.014,355.552,0.021,0.014,0.034*59
$GPZDA,090855.00,17,03,2020,,*62
$GPGGA,090855.00,4923.39174,N,00104.58309,E,4,07,1.9,56.26,M,47.08,M,1.0,4095*7A
$GPGST,090855.00,0.203,0.027,0.015,358.448,0.027,0.015,0.041*54
$GPZDA,090856.00,17,03,2020,,*61
$GPGGA,090856.00,4923.39072,N,00104.59387,E,4,08,1.8,55.95,M,47.08,M,1.0,4095*7C
$GPGST,090856.00,0.129,0.031,0.013,356.915,0.030,0.013,0.041*56
$GPZDA,090857.00,17,03,2020,,*60
$GPGGA,090857.00,4923.38972,N,00104.60434,E,4,07,1.9,55.64,M,47.08,M,1.0,4095*70
$GPGST,090857.00,0.119,0.032,0.015,0.045,0.032,0.015,0.042*5A
$GPZDA,090858.00,17,03,2020,,*6F
$GPGGA,090858.00,4923.38868,N,00104.61436,E,4,07,1.9,55.28,M,47.08,M,1.0,4095*7E
$GPGST,090858.00,0.135,0.028,0.012,355.465,0.028,0.012,0.037*5C
$GPZDA,090859.00,17,03,2020,,*6E
$GPGGA,090859.00,4923.38728,N,00104.62398,E,4,07,1.9,54.89,M,47.08,M,1.0,4095*7E
$GPGST,090859.00,0.126,0.028,0.011,354.334,0.028,0.011,0.036*5C
$GPZDA,090900.00,17,03,2020,,*63
$GPGGA,090900.00,,,,,0,00,,,M,,M,,*48
$GPGST,090900.00,,,,,,,*79
$GPZDA,090901.00,17,03,2020,,*62
$GPGGA,090901.00,4923.38245,N,00104.64214,E,4,05,4.2,53.90,M,47.08,M,1.0,4095*7C
$GPGST,090901.00,0.573,0.033,0.012,359.170,0.033,0.012,0.048*52
$GPZDA,090902.00,17,03,2020,,*61
$GPGGA,090902.00,4923.37969,N,00104.65058,E,5,06,1.7,53.35,M,47.08,M,1.0,4095*73
$GPGST,090902.00,0.364,0.046,0.013,12.009,0.045,0.016,0.087*67
$GPZDA,090903.00,17,03,2020,,*60
$GPGGA,090903.00,4923.37701,N,00104.65857,E,5,06,1.7,52.81,M,47.08,M,1.0,4095*7B
$GPGST,090903.00,0.816,0.036,0.014,5.297,0.036,0.015,0.063*56
$GPZDA,090904.00,17,03,2020,,*67
$GPGGA,090904.00,4923.37434,N,00104.66630,E,5,05,4.1,52.49,M,47.08,M,1.0,4095*71
$GPGST,090904.00,0.663,0.036,0.015,2.601,0.036,0.015,0.065*56
$GPZDA,090905.00,17,03,2020,,*66
$GPGGA,090905.00,4923.37173,N,00104.67400,E,4,06,4.1,52.22,M,47.08,M,1.0,4095*79
$GPGST,090905.00,0.794,0.048,0.014,10.496,0.047,0.016,0.076*6E
$GPZDA,090906.00,17,03,2020,,*65
$GPGGA,090906.00,4923.36906,N,00104.68197,E,4,06,4.1,52.12,M,47.08,M,1.0,4095*76
$GPGST,090906.00,0.565,0.048,0.014,10.660,0.048,0.017,0.078*6A
$GPZDA,090907.00,17,03,2020,,*64
$GPGGA,090907.00,4923.36640,N,00104.69009,E,4,06,4.1,52.11,M,47.08,M,1.0,4095*7E
$GPGST,090907.00,0.357,0.049,0.014,10.642,0.048,0.017,0.078*6D
$GPZDA,090908.00,17,03,2020,,*6B
$GPGGA,090908.00,4923.36356,N,00104.69838,E,4,06,3.1,52.24,M,47.08,M,1.0,4095*78
$GPGST,090908.00,0.134,0.044,0.012,4.848,0.044,0.012,0.059*55
$GPZDA,090909.00,17,03,2020,,*6A
$GPGGA,090909.00,4923.36063,N,00104.70708,E,4,07,2.9,52.41,M,47.08,M,1.0,4095*73
$GPGST,090909.00,0.290,0.043,0.010,4.739,0.043,0.011,0.055*5D
$GPZDA,090910.00,17,03,2020,,*62
$GPGGA,090910.00,4923.35749,N,00104.71618,E,4,07,2.9,52.56,M,47.08,M,1.0,4095*70
$GPGST,090910.00,0.494,0.044,0.011,4.740,0.044,0.011,0.055*58
$GPZDA,090911.00,17,03,2020,,*63
$GPGGA,090911.00,4923.35409,N,00104.72576,E,4,09,1.2,52.65,M,47.08,M,1.0,4095*78
$GPGST,090911.00,0.789,0.042,0.010,4.135,0.042,0.011,0.052*54
$GPZDA,090912.00,17,03,2020,,*60
$GPGGA,090912.00,4923.35033,N,00104.73555,E,4,08,1.8,52.67,M,47.08,M,1.0,4095*7F
$GPGST,090912.00,0.261,0.030,0.010,358.361,0.030,0.010,0.037*5F
$GPZDA,090913.00,17,03,2020,,*61
$GPGGA,090913.00,4923.34647,N,00104.74492,E,4,09,1.2,52.87,M,47.08,M,1.0,4095*72
$GPGST,090913.00,0.239,0.023,0.009,354.060,0.023,0.009,0.029*52
$GPZDA,090914.00,17,03,2020,,*66
$GPGGA,090914.00,4923.34256,N,00104.75408,E,4,09,1.2,53.05,M,47.08,M,1.0,4095*78
$GPGST,090914.00,0.308,0.016,0.009,345.729,0.015,0.010,0.023*5D
$GPZDA,090915.00,17,03,2020,,*67
$GPGGA,090915.00,4923.33860,N,00104.76338,E,4,09,1.2,53.02,M,47.08,M,1.0,4095*71
$GPGST,090915.00,0.165,0.016,0.009,346.333,0.016,0.009,0.023*52
$GPZDA,090916.00,17,03,2020,,*64
$GPGGA,090916.00,4923.33455,N,00104.77300,E,4,09,1.2,53.02,M,47.08,M,1.0,4095*72
$GPGST,090916.00,0.216,0.016,0.009,344.971,0.015,0.009,0.022*5A
$GPZDA,090917.00,17,03,2020,,*65
$GPGGA,090917.00,4923.33040,N,00104.78286,E,4,09,1.2,52.98,M,47.08,M,1.0,4095*71
$GPGST,090917.00,0.401,0.016,0.009,344.674,0.015,0.009,0.022*51
$GPZDA,090918.00,17,03,2020,,*6A
$GPGGA,090918.00,4923.32616,N,00104.79282,E,4,08,1.4,52.96,M,47.08,M,1.0,4095*76
$GPGST,090918.00,0.285,0.016,0.010,345.995,0.015,0.011,0.024*52
$GPZDA,090919.00,17,03,2020,,*6B
$GPGGA,090919.00,4923.32182,N,00104.80291,E,4,08,1.4,52.86,M,47.08,M,1.0,4095*78
$GPGST,090919.00,0.152,0.016,0.011,350.492,0.016,0.011,0.026*54
$GPZDA,090920.00,17,03,2020,,*61
$GPGGA,090920.00,4923.31742,N,00104.81302,E,4,07,1.5,52.72,M,47.08,M,1.0,4095*74
$GPGST,090920.00,0.377,0.016,0.011,353.463,0.016,0.011,0.026*56
$GPZDA,090921.00,17,03,2020,,*60
$GPGGA,090921.00,4923.31303,N,00104.82314,E,4,09,1.2,52.53,M,47.08,M,1.0,4095*7A
$GPGST,090921.00,0.393,0.016,0.010,347.988,0.015,0.010,0.023*56
$GPZDA,090922.00,17,03,2020,,*63
$GPGGA,090922.00,4923.30859,N,00104.83325,E,4,08,1.4,52.36,M,47.08,M,1.0,4095*7B
$GPGST,090922.00,0.286,0.016,0.010,348.575,0.016,0.010,0.024*55
$GPZDA,090923.00,17,03,2020,,*62
$GPGGA,090923.00,4923.30420,N,00104.84334,E,4,09,1.2,52.14,M,47.08,M,1.0,4095*78
$GPGST,090923.00,0.432,0.019,0.014,353.409,0.019,0.014,0.031*59
$GPZDA,090924.00,17,03,2020,,*65
$GPGGA,090924.00,4923.29981,N,00104.85320,E,4,08,1.8,51.88,M,47.08,M,1.0,4095*78
$GPGST,090924.00,0.464,0.029,0.013,1.637,0.029,0.013,0.043*53
$GPZDA,090925.00,17,03,2020,,*64
$GPGGA,090925.00,4923.29557,N,00104.86282,E,4,06,3.2,51.79,M,47.08,M,1.0,4095*7C
$GPGST,090925.00,0.416,0.058,0.014,5.776,0.057,0.015,0.076*5F
$GPZDA,090926.00,17,03,2020,,*67
$GPGGA,090926.00,,,,,0,00,,,M,,M,,*4C
$GPGST,090926.00,,,,,,,*7D
$GPZDA,090927.00,17,03,2020,,*66
$GPGGA,090927.00,4923.28709,N,00104.88176,E,5,06,4.0,51.28,M,47.08,M,1.0,4095*70
$GPGST,090927.00,0.087,0.093,0.028,24.062,0.085,0.045,0.244*61
$GPZDA,090928.00,17,03,2020,,*69
$GPGGA,090928.00,4923.28263,N,00104.89117,E,5,06,4.0,50.67,M,47.08,M,1.0,4095*7A
$GPGST,090928.00,0.325,0.101,0.029,25.311,0.092,0.051,0.277*6B
$GPZDA,090929.00,17,03,2020,,*68
$GPGGA,090929.00,4923.27824,N,00104.90064,E,5,06,4.0,50.30,M,47.08,M,1.0,4095*72
$GPGST,090929.00,0.198,0.077,0.024,21.896,0.072,0.036,0.198*6E
$GPZDA,090930.00,17,03,2020,,*60
$GPGGA,090930.00,4923.27384,N,00104.91019,E,4,06,4.0,49.92,M,47.08,M,1.0,4095*71
$GPGST,090930.00,0.242,0.051,0.015,8.783,0.050,0.017,0.079*59
$GPZDA,090931.00,17,03,2020,,*61
$GPGGA,090931.00,4923.26946,N,00104.91977,E,4,07,1.5,49.43,M,47.08,M,1.0,4095*79
$GPGST,090931.00,0.327,0.047,0.015,8.104,0.046,0.016,0.072*59
$GPZDA,090932.00,17,03,2020,,*62
$GPGGA,090932.00,4923.26504,N,00104.92936,E,4,06,4.0,48.90,M,47.08,M,1.0,4095*78
$GPGST,090932.00,0.104,0.042,0.014,1.931,0.042,0.014,0.059*55
$GPZDA,090933.00,17,03,2020,,*63
$GPGGA,090933.00,4923.26053,N,00104.93904,E,4,06,4.0,48.34,M,47.08,M,1.0,4095*70
$GPGST,090933.00,0.114,0.038,0.013,358.510,0.038,0.013,0.049*54
$GPZDA,090934.00,17,03,2020,,*64
$GPGGA,090934.00,4923.25596,N,00104.94886,E,4,08,1.8,47.74,M,47.08,M,1.0,4095*7C
$GPGST,090934.00,0.203,0.039,0.010,1.682,0.039,0.010,0.048*50
$GPZDA,090935.00,17,03,2020,,*65
$GPGGA,090935.00,4923.25150,N,00104.95850,E,4,09,1.2,47.18,M,47.08,M,1.0,4095*78
$GPGST,090935.00,0.429,0.022,0.009,352.095,0.022,0.010,0.027*5B
$GPZDA,090936.00,17,03,2020,,*66
$GPGGA,090936.00,4923.24713,N,00104.96793,E,4,09,1.2,46.65,M,47.08,M,1.0,4095*73
$GPGST,090936.00,0.317,0.016,0.009,344.654,0.015,0.009,0.023*51
$GPZDA,090937.00,17,03,2020,,*67
$GPGGA,090937.00,4923.24296,N,00104.97699,E,4,09,1.2,46.15,M,47.08,M,1.0,4095*77
$GPGST,090937.00,0.198,0.016,0.009,344.939,0.016,0.010,0.023*5A
$GPZDA,090938.00,17,03,2020,,*68
$GPGGA,090938.00,4923.23900,N,00104.98553,E,4,09,1.2,45.69,M,47.08,M,1.0,4095*79
$GPGST,090938.00,0.310,0.016,0.009,345.902,0.016,0.010,0.023*5E
$GPZDA,090939.00,17,03,2020,,*69
$GPGGA,090939.00,4923.23536,N,00104.99367,E,4,09,1.2,45.28,M,47.08,M,1.0,4095*74
$GPGST,090939.00,0.167,0.016,0.009,345.520,0.016,0.009,0.023*59
$GPZDA,090940.00,17,03,2020,,*67
$GPGGA,090940.00,4923.23221,N,00105.00138,E,4,09,1.2,44.93,M,47.08,M,1.0,4095*73
$GPGST,090940.00,0.134,0.016,0.009,344.201,0.015,0.009,0.022*56
$GPZDA,090941.00,17,03,2020,,*66
$GPGGA,090941.00,4923.22944,N,00105.00848,E,4,09,1.2,44.60,M,47.08,M,1.0,4095*79
$GPGST,090941.00,0.200,0.016,0.009,344.131,0.015,0.009,0.022*53
$GPZDA,090942.00,17,03,2020,,*65
$GPGGA,090942.00,4923.22692,N,00105.01492,E,4,09,1.2,44.27,M,47.08,M,1.0,4095*77
$GPGST,090942.00,0.140,0.016,0.009,345.065,0.016,0.009,0.023*54
$GPZDA,090943.00,17,03,2020,,*64
$GPGGA,090943.00,4923.22404,N,00105.01976,E,4,09,1.2,44.04,M,47.08,M,1.0,4095*7D
$GPGST,090943.00,0.389,0.016,0.009,344.756,0.015,0.009,0.022*56
$GPZDA,090944.00,17,03,2020,,*63
$GPGGA,090944.00,4923.22065,N,00105.02273,E,4,08,1.4,43.87,M,47.08,M,1.0,4095*7F
$GPGST,090944.00,0.386,0.016,0.009,345.482,0.016,0.009,0.023*57
$GPZDA,090945.00,17,03,2020,,*62
$GPGGA,090945.00,4923.21697,N,00105.02342,E,4,09,1.2,43.77,M,47.08,M,1.0,4095*7D
$GPGST,090945.00,0.352,0.022,0.011,341.993,0.021,0.012,0.030*54
$GPZDA,090946.00,17,03,2020,,*61
$GPGGA,090946.00,4923.21344,N,00105.02162,E,4,09,1.2,43.83,M,47.08,M,1.0,4095*7E
$GPGST,090946.00,0.277,0.021,0.011,346.522,0.020,0.012,0.029*5A
$GPZDA,090947.00,17,03,2020,,*60
$GPGGA,090947.00,4923.21045,N,00105.01743,E,4,08,1.7,43.91,M,47.09,M,1.0,4095*7D
$GPGST,090947.00,0.168,0.022,0.009,353.104,0.022,0.010,0.025*54
$GPZDA,090948.00,17,03,2020,,*6F
$GPGGA,090948.00,4923.20775,N,00105.01155,E,4,08,1.7,44.02,M,47.09,M,1.0,4095*7B
$GPGST,090948.00,0.182,0.029,0.010,354.167,0.028,0.010,0.027*56
$GPZDA,090949.00,17,03,2020,,*6E
$GPGGA,090949.00,4923.20502,N,00105.00527,E,4,08,1.7,44.22,M,47.09,M,1.0,4095*7A
$GPGST,090949.00,0.565,0.028,0.010,354.154,0.028,0.010,0.027*5B
$GPZDA,090950.00,17,03,2020,,*66
$GPGGA,090950.00,4923.20201,N,00104.99825,E,4,08,1.7,44.42,M,47.09,M,1.0,4095*7E
$GPGST,090950.00,0.670,0.029,0.010,354.620,0.029,0.010,0.028*5F
$GPZDA,090951.00,17,03,2020,,*67
$GPGGA,090951.00,4923.19864,N,00104.99033,E,4,08,1.7,44.76,M,47.09,M,1.0,4095*74
$GPGST,090951.00,0.374,0.029,0.010,354.303,0.029,0.010,0.027*54
$GPZDA,090952.00,17,03,2020,,*64
$GPGGA,090952.00,4923.19491,N,00104.98166,E,4,08,1.7,45.13,M,47.09,M,1.0,4095*73
$GPGST,090952.00,0.243,0.032,0.012,356.294,0.032,0.012,0.034*5D
$GPZDA,090953.00,17,03,2020,,*65
$GPGGA,090953.00,4923.19109,N,00104.97293,E,4,08,1.7,45.51,M,47.09,M,1.0,4095*76
$GPGST,090953.00,0.164,0.034,0.012,355.929,0.034,0.013,0.035*54
$GPZDA,090954.00,17,03,2020,,*62
$GPGGA,090954.00,4923.18706,N,00104.96400,E,4,08,1.7,45.87,M,47.09,M,1.0,4095*7F
$GPGST,090954.00,0.288,0.030,0.010,354.548,0.030,0.010,0.028*55
$GPZDA,090955.00,17,03,2020,,*63
$GPGGA,090955.00,4923.18283,N,00104.95462,E,4,09,1.6,46.27,M,47.09,M,1.0,4095*78
$GPGST,090955.00,0.403,0.028,0.009,355.452,0.028,0.009,0.027*55
$GPZDA,090956.00,17,03,2020,,*60
$GPGGA,090956.00,4923.17831,N,00104.94487,E,4,09,1.6,46.67,M,47.09,M,1.0,4095*79
$GPGST,090956.00,0.165,0.026,0.009,359.104,0.026,0.009,0.027*59
$GPZDA,090957.00,17,03,2020,,*61
$GPGGA,090957.00,4923.17336,N,00104.93501,E,4,09,1.6,47.12,M,47.09,M,1.0,4095*7F
$GPGST,090957.00,0.298,0.026,0.009,358.950,0.026,0.009,0.027*51
$GPZDA,090958.00,17,03,2020,,*6E
$GPGGA,090958.00,4923.16804,N,00104.92558,E,4,09,1.6,47.54,M,47.09,M,1.0,4095*74
$GPGST,090958.00,0.144,0.026,0.008,358.969,0.026,0.008,0.027*56
$GPZDA,090959.00,17,03,2020,,*6F
$GPGGA,090959.00,4923.16252,N,00104.91663,E,4,09,1.6,48.03,M,47.09,M,1.0,4095*79
$GPGST,090959.00,0.211,0.030,0.011,0.654,0.030,0.011,0.033*5E
$GPZDA,091000.00,17,03,2020,,*6B
$GPGGA,091000.00,4923.15703,N,00104.90818,E,4,10,1.1,48.42,M,47.09,M,1.0,4095*76
$GPGST,091000.00,0.243,0.026,0.011,356.785,0.026,0.011,0.030*53
$GPZDA,091001.00,17,03,2020,,*6A
$GPGGA,091001.00,4923.15153,N,00104.90015,E,4,10,1.1,48.82,M,47.09,M,1.0,4095*7D
$GPGST,091001.00,0.282,0.017,0.008,349.187,0.017,0.009,0.021*54
$GPZDA,091002.00,17,03,2020,,*69
$GPGGA,091002.00,4923.14592,N,00104.89255,E,4,09,1.3,49.23,M,47.09,M,1.0,4095*78
$GPGST,091002.00,0.349,0.017,0.008,347.154,0.017,0.009,0.020*50
$GPZDA,091003.00,17,03,2020,,*68
$GPGGA,091003.00,4923.14010,N,00104.88529,E,4,09,1.6,49.63,M,47.09,M,1.0,4095*7A
$GPGST,091003.00,0.291,0.019,0.009,349.166,0.018,0.009,0.022*58
$GPZDA,091004.00,17,03,2020,,*6F
$GPGGA,091004.00,4923.13412,N,00104.87830,E,4,07,2.8,50.09,M,47.09,M,1.0,4095*71
$GPGST,091004.00,0.155,0.040,0.012,5.026,0.040,0.013,0.050*5F
$GPZDA,091005.00,17,03,2020,,*6E
$GPGGA,091005.00,4923.12790,N,00104.87165,E,4,06,3.9,50.53,M,47.09,M,1.0,4095*7F
$GPGST,091005.00,0.259,0.057,0.020,8.394,0.056,0.021,0.082*58
$GPZDA,091006.00,17,03,2020,,*6D
$GPGGA,091006.00,4923.12169,N,00104.86508,E,4,07,2.6,50.91,M,47.09,M,1.0,4095*73
$GPGST,091006.00,0.750,0.041,0.015,9.446,0.040,0.016,0.055*56
$GPZDA,091007.00,17,03,2020,,*6C
$GPGGA,091007.00,4923.11540,N,00104.85860,E,4,07,2.6,51.29,M,47.09,M,1.0,4095*7C
$GPGST,091007.00,0.177,0.038,0.015,9.671,0.037,0.016,0.049*51
$GPZDA,091008.00,17,03,2020,,*63
$GPGGA,091008.00,4923.10902,N,00104.85212,E,4,07,2.6,51.69,M,47.09,M,1.0,4095*73
$GPGST,091008.00,0.158,0.038,0.016,9.282,0.037,0.017,0.049*59
$GPZDA,091009.00,17,03,2020,,*62
$GPGGA,091009.00,4923.10254,N,00104.84559,E,4,07,2.6,52.10,M,47.09,M,1.0,4095*7E
$GPGST,091009.00,0.203,0.038,0.015,9.662,0.037,0.016,0.049*5D
$GPZDA,091010.00,17,03,2020,,*6A
$GPGGA,091010.00,4923.09615,N,00104.83909,E,4,06,3.3,52.43,M,47.09,M,1.0,4095*72
$GPGST,091010.00,0.142,0.038,0.017,9.168,0.038,0.018,0.050*55
$GPZDA,091011.00,17,03,2020,,*6B
$GPGGA,091011.00,4923.08990,N,00104.83264,E,4,07,2.6,52.68,M,47.09,M,1.0,4095*7C
$GPGST,091011.00,0.298,0.038,0.020,8.919,0.038,0.020,0.053*53
$GPZDA,091012.00,17,03,2020,,*68
$GPGGA,091012.00,4923.08361,N,00104.82621,E,4,06,3.9,52.83,M,47.09,M,1.0,4095*75
$GPGST,091012.00,0.268,0.041,0.018,9.480,0.040,0.019,0.058*58
$GPZDA,091013.00,17,03,2020,,*69
$GPGGA,091013.00,4923.07727,N,00104.81969,E,5,07,1.9,52.80,M,47.09,M,1.0,4095*7C
$GPGST,091013.00,0.234,0.047,0.017,10.486,0.047,0.019,0.078*62
$GPZDA,091014.00,17,03,2020,,*6E
$GPGGA,091014.00,4923.07106,N,00104.81328,E,5,06,3.9,52.91,M,47.09,M,1.0,4095*72
$GPGST,091014.00,0.301,0.052,0.018,8.713,0.052,0.020,0.079*50
$GPZDA,091015.00,17,03,2020,,*6F
$GPGGA,091015.00,4923.06494,N,00104.80687,E,4,06,3.9,52.79,M,47.09,M,1.0,4095*7A
$GPGST,091015.00,0.335,0.055,0.017,10.415,0.055,0.019,0.085*6C
$GPZDA,091016.00,17,03,2020,,*6C
$GPGGA,091016.00,4923.05917,N,00104.79994,E,4,07,1.9,52.74,M,47.09,M,1.0,4095*79
$GPGST,091016.00,0.257,0.032,0.011,351.548,0.031,0.011,0.034*52
$GPZDA,091017.00,17,03,2020,,*6D
$GPGGA,091017.00,4923.05407,N,00104.79229,E,4,07,1.5,52.80,M,47.09,M,1.0,4095*7E
$GPGST,091017.00,0.339,0.020,0.010,342.628,0.019,0.011,0.027*57
$GPZDA,091018.00,17,03,2020,,*62
$GPGGA,091018.00,4923.04972,N,00104.78399,E,4,06,3.9,52.82,M,47.09,M,1.0,4095*79
$GPGST,091018.00,0.275,0.024,0.015,351.358,0.024,0.015,0.040*5B
$GPZDA,091019.00,17,03,2020,,*63
$GPGGA,091019.00,4923.04623,N,00104.77553,E,5,06,2.8,52.85,M,47.09,M,1.0,4095*7A
$GPGST,091019.00,0.328,0.049,0.016,13.247,0.048,0.019,0.079*6D
$GPZDA,091020.00,17,03,2020,,*69
$GPGGA,091020.00,4923.04354,N,00104.76741,E,4,06,2.8,52.77,M,47.09,M,1.0,4095*79
$GPGST,091020.00,0.306,0.030,0.011,352.587,0.030,0.011,0.034*51
$GPZDA,091021.00,17,03,2020,,*68
$GPGGA,091021.00,4923.04146,N,00104.75981,E,4,07,1.9,52.75,M,47.09,M,1.0,4095*79
$GPGST,091021.00,0.261,0.037,0.014,351.773,0.037,0.015,0.044*5C
$GPZDA,091022.00,17,03,2020,,*6B
$GPGGA,091022.00,,,,,0,00,,,M,,M,,*40
$GPGST,091022.00,,,,,,,*71
$GPZDA,091023.00,17,03,2020,,*6A
$GPGGA,091023.00,4923.04052,N,00104.74535,E,5,05,3.1,52.81,M,47.09,M,1.0,4095*7F
$GPGST,091023.00,0.800,0.154,0.032,32.482,0.131,0.087,0.477*60
$GPZDA,091024.00,17,03,2020,,*6D
$GPGGA,091024.00,4923.04136,N,00104.73862,E,5,05,3.1,52.70,M,47.09,M,1.0,4095*7D
$GPGST,091024.00,0.530,0.147,0.032,32.528,0.125,0.083,0.455*6B
$GPZDA,091025.00,17,03,2020,,*6C
$GPGGA,091025.00,4923.04162,N,00104.73190,E,5,06,3.9,52.76,M,47.09,M,1.0,4095*74
$GPGST,091025.00,0.607,0.128,0.030,30.843,0.111,0.071,0.385*64
$GPZDA,091026.00,17,03,2020,,*6F
$GPGGA,091026.00,4923.04112,N,00104.72525,E,5,06,3.9,53.06,M,47.09,M,1.0,4095*7D
$GPGST,091026.00,0.836,0.107,0.027,28.631,0.095,0.057,0.308*6E
$GPZDA,091027.00,17,03,2020,,*6E
$GPGGA,091027.00,4923.04095,N,00104.71844,E,5,05,3.9,53.14,M,47.09,M,1.0,4095*7B
$GPGST,091027.00,0.185,0.082,0.025,23.666,0.076,0.040,0.213*69
$GPZDA,091028.00,17,03,2020,,*61
$GPGGA,091028.00,4923.04196,N,00104.71162,E,5,05,3.9,53.35,M,47.09,M,1.0,4095*78
$GPGST,091028.00,0.046,0.078,0.024,21.386,0.073,0.036,0.194*6D
$GPZDA,091029.00,17,03,2020,,*60
$GPGGA,091029.00,4923.04397,N,00104.70478,E,5,05,3.9,53.46,M,47.09,M,1.0,4095*71
$GPGST,091029.00,0.111,0.060,0.019,11.610,0.059,0.022,0.112*62
$GPZDA,091030.00,17,03,2020,,*68
$GPGGA,091030.00,4923.04635,N,00104.69766,E,5,05,3.9,53.79,M,47.09,M,1.0,4095*7C
$GPGST,091030.00,0.178,0.061,0.019,11.775,0.060,0.022,0.113*6D
$GPZDA,091031.00,17,03,2020,,*69
$GPGGA,091031.00,4923.04870,N,00104.69043,E,5,05,3.9,54.02,M,47.09,M,1.0,4095*79
$GPGST,091031.00,0.264,0.061,0.019,11.794,0.060,0.022,0.113*6D
$GPZDA,091032.00,17,03,2020,,*6A
$GPGGA,091032.00,4923.05121,N,00104.68265,E,5,05,3.9,54.31,M,47.09,M,1.0,4095*71
$GPGST,091032.00,0.316,0.065,0.021,14.828,0.063,0.026,0.114*68
$GPZDA,091033.00,17,03,2020,,*6B
$GPGGA,091033.00,4923.05396,N,00104.67427,E,5,05,3.9,54.66,M,47.09,M,1.0,4095*73
$GPGST,091033.00,0.226,0.061,0.019,11.770,0.060,0.022,0.111*61
$GPZDA,091034.00,17,03,2020,,*6C
$GPGGA,091034.00,4923.05677,N,00104.66521,E,5,05,3.9,55.01,M,47.09,M,1.0,4095*78
$GPGST,091034.00,0.335,0.062,0.019,12.378,0.061,0.023,0.114*6C
$GPZDA,091035.00,17,03,2020,,*6D
$GPGGA,091035.00,4923.05973,N,00104.65587,E,4,06,3.9,55.37,M,47.09,M,1.0,4095*7A
$GPGST,091035.00,0.105,0.058,0.018,12.458,0.057,0.022,0.093*6B
$GPZDA,091036.00,17,03,2020,,*6E
$GPGGA,091036.00,4923.06271,N,00104.64653,E,4,05,3.9,55.79,M,47.09,M,1.0,4095*71
$GPGST,091036.00,0.439,0.051,0.016,11.223,0.050,0.019,0.083*62
$GPZDA,091037.00,17,03,2020,,*6F
$GPGGA,091037.00,4923.06573,N,00104.63705,E,5,05,3.9,56.15,M,47.09,M,1.0,4095*78
$GPGST,091037.00,0.497,0.052,0.016,10.734,0.051,0.018,0.098*6C
$GPZDA,091038.00,17,03,2020,,*60
$GPGGA,091038.00,4923.06876,N,00104.62765,E,5,06,1.7,56.50,M,47.09,M,1.0,4095*76
$GPGST,091038.00,0.547,0.047,0.016,9.230,0.046,0.018,0.085*58
$GPZDA,091039.00,17,03,2020,,*61
$GPGGA,091039.00,4923.07171,N,00104.61867,E,5,06,1.7,56.88,M,47.09,M,1.0,4095*73
$GPGST,091039.00,0.202,0.038,0.015,6.751,0.038,0.016,0.068*5D
$GPZDA,091040.00,17,03,2020,,*6F
$GPGGA,091040.00,4923.07439,N,00104.61037,E,4,05,3.9,57.19,M,47.09,M,1.0,4095*7E
$GPGST,091040.00,0.137,0.025,0.015,359.466,0.025,0.015,0.047*56
$GPZDA,091041.00,17,03,2020,,*6E
$GPGGA,091041.00,4923.07672,N,00104.60317,E,5,05,3.9,57.43,M,47.09,M,1.0,4095*7C
$GPGST,091041.00,1.106,0.054,0.014,14.737,0.052,0.020,0.100*6A
$GPZDA,091042.00,17,03,2020,,*6D
$GPGGA,091042.00,4923.07872,N,00104.59696,E,5,06,1.7,57.62,M,47.08,M,1.0,4095*7A
$GPGST,091042.00,0.860,0.048,0.019,9.083,0.047,0.020,0.087*5F
$GPZDA,091043.00,17,03,2020,,*6C
$GPGGA,091043.00,4923.08037,N,00104.59146,E,5,06,1.7,57.86,M,47.08,M,1.0,4095*7D
$GPGST,091043.00,0.439,0.041,0.018,6.025,0.041,0.019,0.072*53
$GPZDA,091044.00,17,03,2020,,*6B
$GPGGA,091044.00,4923.08109,N,00104.58629,E,4,06,1.7,58.12,M,47.08,M,1.0,4095*7A
$GPGST,091044.00,0.131,0.024,0.017,345.340,0.024,0.017,0.041*5C
$GPZDA,091045.00,17,03,2020,,*6A
$GPGGA,091045.00,4923.08067,N,00104.58178,E,4,05,3.9,58.17,M,47.08,M,1.0,4095*7B
$GPGST,091045.00,0.356,0.026,0.015,359.336,0.026,0.015,0.048*5B
$GPZDA,091046.00,17,03,2020,,*69
$GPGGA,091046.00,4923.07935,N,00104.57826,E,4,06,2.0,58.14,M,47.08,M,1.0,4095*7C
$GPGST,091046.00,0.255,0.036,0.015,355.182,0.036,0.015,0.050*52
$GPZDA,091047.00,17,03,2020,,*68
$GPGGA,091047.00,4923.07774,N,00104.57609,E,4,07,1.6,58.17,M,47.08,M,1.0,4095*72
$GPGST,091047.00,0.225,0.031,0.014,351.151,0.030,0.015,0.044*5B
$GPZDA,091048.00,17,03,2020,,*67
$GPGGA,091048.00,4923.07668,N,00104.57505,E,4,06,2.0,58.10,M,47.08,M,1.0,4095*7D
$GPGST,091048.00,0.147,0.025,0.012,350.489,0.025,0.012,0.036*57
$GPZDA,091049.00,17,03,2020,,*66
$GPGGA,091049.00,4923.07634,N,00104.57474,E,4,07,1.6,58.10,M,47.08,M,1.0,4095*76
$GPGST,091049.00,0.327,0.022,0.012,345.874,0.022,0.012,0.035*5B
$GPZDA,091050.00,17,03,2020,,*6E
$GPGGA,091050.00,4923.07636,N,00104.57475,E,4,08,1.2,58.11,M,47.08,M,1.0,4095*77
$GPGST,091050.00,0.153,0.019,0.011,354.573,0.019,0.011,0.026*5A
$GPZDA,091051.00,17,03,2020,,*6F
$GPGGA,091051.00,4923.07636,N,00104.57475,E,4,10,1.1,58.12,M,47.08,M,1.0,4095*7F
$GPGST,091051.00,0.312,0.017,0.010,351.548,0.017,0.010,0.022*55
$GPZDA,091052.00,17,03,2020,,*6C
$GPGGA,091052.00,4923.07636,N,00104.57474,E,4,10,1.1,58.12,M,47.08,M,1.0,4095*7D
$GPGST,091052.00,0.239,0.016,0.008,348.404,0.016,0.009,0.021*5D
$GPZDA,091053.00,17,03,2020,,*6D
$GPGGA,091053.00,4923.07636,N,00104.57475,E,4,10,1.1,58.12,M,47.08,M,1.0,4095*7D
$GPGST,091053.00,0.283,0.017,0.008,349.299,0.016,0.009,0.021*5F
$GPZDA,091054.00,17,03,2020,,*6A
$GPGGA,091054.00,4923.07636,N,00104.57475,E,4,10,1.1,58.12,M,47.08,M,1.0,4095*7A
$GPGST,091054.00,0.270,0.017,0.009,349.123,0.017,0.009,0.021*56
$GPZDA,091055.00,17,03,2020,,*6B
$GPGGA,091055.00,4923.07636,N,00104.57475,E,4,10,1.1,58.12,M,47.08,M,1.0,4095*7B
$GPGST,091055.00,0.364,0.017,0.009,348.777,0.017,0.009,0.021*55
$GPZDA,091056.00,17,03,2020,,*68
$GPGGA,091056.00,4923.07636,N,00104.57475,E,4,10,1.1,58.13,M,47.08,M,1.0,4095*79
$GPGST,091056.00,0.559,0.016,0.008,349.656,0.016,0.009,0.020*5D
