$GPGGA,090554.33,4923.07469367,N,00104.57598018,E,4,11,0.023,56.261,M,47.080,M,1.000,4095*77
$GPGST,090554.33,0.391,0.017,0.015,173.325,0.017,0.015,0.022*50
$GPVTG,90.000,T,90.000,M,0.003,N,0.006,K,D*23
$GPGLL,4923.07469367,N,00104.57598018,E,090554.33,A,D*69
$GPGGA,090554.43,4923.07469558,N,00104.57598209,E,4,11,0.023,56.262,M,47.080,M,1.000,4095*7B
$GPGST,090554.43,0.391,0.017,0.015,173.325,0.017,0.015,0.022*57
$GPVTG,90.000,T,90.000,M,0.001,N,0.002,K,D*25
$GPGLL,4923.07469558,N,00104.57598209,E,090554.43,A,D*66
$GPGGA,090554.53,4923.07469558,N,00104.57598209,E,4,11,0.023,56.262,M,47.080,M,1.000,4095*7A
$GPGST,090554.53,0.391,0.017,0.015,173.325,0.017,0.015,0.022*56
$GPVTG,90.000,T,90.000,M,0.005,N,0.009,K,D*2A
$GPGLL,4923.07469558,N,00104.57598209,E,090554.53,A,D*67
$GPGGA,090554.63,4923.07469558,N,00104.57598209,E,4,11,0.023,56.262,M,47.080,M,1.000,4095*79
$GPGST,090554.63,0.391,0.017,0.015,173.325,0.017,0.015,0.022*55
$GPVTG,90.000,T,90.000,M,0.002,N,0.004,K,D*20
$GPGLL,4923.07469558,N,00104.57598209,E,090554.63,A,D*64
$GPGGA,090554.73,4923.07469558,N,00104.57598209,E,4,11,0.023,56.262,M,47.080,M,1.000,4095*78
$GPGST,090554.73,0.391,0.017,0.015,173.325,0.017,0.015,0.022*54
$GPVTG,90.000,T,90.000,M,0.002,N,0.004,K,D*20
$GPGLL,4923.07469558,N,00104.57598209,E,090554.73,A,D*65
$GPGGA,090554.83,4923.07469558,N,00104.57598209,E,4,11,0.023,56.262,M,47.080,M,1.000,4095*77
$GPGST,090554.83,0.391,0.017,0.015,173.325,0.017,0.015,0.022*5B
$GPVTG,90.000,T,90.000,M,0.006,N,0.012,K,D*23
$GPGLL,4923.07469558,N,00104.57598209,E,090554.83,A,D*6A
$GPGGA,090554.93,4923.07469558,N,00104.57598209,E,4,11,0.023,56.262,M,47.080,M,1.000,4095*76
$GPGST,090554.93,0.391,0.017,0.015,173.325,0.017,0.015,0.022*5A
$GPVTG,90.000,T,90.000,M,0.008,N,0.015,K,D*2A
$GPGLL,4923.07469558,N,00104.57598209,E,090554.93,A,D*6B
$GPZDA,090555.02,17,03,2020,,*6D
$GPGGA,090555.03,4923.07469558,N,00104.57598209,E,4,11,0.023,56.262,M,47.080,M,1.000,4095*7E
$GPGST,090555.03,0.391,0.017,0.015,173.325,0.017,0.015,0.022*52
$GPVTG,90.000,T,90.000,M,0.004,N,0.007,K,D*25
$GPGLL,4923.07469558,N,00104.57598209,E,090555.03,A,D*63
$GPGGA,090555.13,4923.07469558,N,00104.57598209,E,4,11,0.023,56.262,M,47.080,M,1.000,4095*7F
$GPGST,090555.13,0.365,0.017,0.015,173.325,0.017,0.015,0.022*58
$GPVTG,90.000,T,90.000,M,0.004,N,0.007,K,D*25
$GPGLL,4923.07469558,N,00104.57598209,E,090555.13,A,D*62
$GPGGA,090555.23,4923.07469558,N,00104.57598209,E,4,11,0.023,56.262,M,47.080,M,1.000,4095*7C
$GPGST,090555.23,0.365,0.017,0.015,173.325,0.017,0.015,0.022*5B
$GPVTG,90.000,T,90.000,M,0.006,N,0.012,K,D*23
$GPGLL,4923.07469558,N,00104.57598209,E,090555.23,A,D*61
$GPGGA,090555.33,4923.07469558,N,00104.57598304,E,4,11,0.023,56.263,M,47.080,M,1.000,4095*70
$GPGST,090555.33,0.365,0.017,0.015,173.325,0.017,0.015,0.022*5A
$GPVTG,90.000,T,90.000,M,0.001,N,0.002,K,D*25
$GPGLL,4923.07469558,N,00104.57598304,E,090555.33,A,D*6C
$GPGGA,090555.43,4923.07469558,N,00104.57598304,E,4,11,0.023,56.263,M,47.080,M,1.000,4095*77
$GPGST,090555.43,0.365,0.017,0.015,173.325,0.017,0.015,0.022*5D
$GPVTG,90.000,T,90.000,M,0.002,N,0.003,K,D*27
$GPGLL,4923.07469558,N,00104.57598304,E,090555.43,A,D*6B
$GPGGA,090555.53,4923.07469558,N,00104.57598304,E,4,11,0.023,56.263,M,47.080,M,1.000,4095*76
$GPGST,090555.53,0.365,0.017,0.015,173.325,0.017,0.015,0.022*5C
$GPVTG,90.000,T,90.000,M,0.004,N,0.008,K,D*2A
$GPGLL,4923.07469558,N,00104.57598304,E,090555.53,A,D*6A
$GPGGA,090555.63,4923.07469558,N,00104.57598304,E,4,11,0.023,56.263,M,47.080,M,1.000,4095*75
$GPGST,090555.63,0.365,0.017,0.015,173.325,0.017,0.015,0.022*5F
$GPVTG,90.000,T,90.000,M,0.003,N,0.006,K,D*23
$GPGLL,4923.07469558,N,00104.57598304,E,090555.63,A,D*69
$GPGGA,090555.73,4923.07469558,N,00104.57598447,E,4,11,0.023,56.263,M,47.080,M,1.000,4095*74
$GPGST,090555.73,0.365,0.017,0.015,173.325,0.017,0.015,0.022*5E
$GPVTG,90.000,T,90.000,M,0.009,N,0.017,K,D*29
$GPGLL,4923.07469558,N,00104.57598447,E,090555.73,A,D*68
$GPGGA,090555.83,4923.07469558,N,00104.57598447,E,4,11,0.023,56.263,M,47.080,M,1.000,4095*7B
$GPGST,090555.83,0.365,0.017,0.015,173.325,0.017,0.015,0.022*51
$GPVTG,90.000,T,90.000,M,0.006,N,0.011,K,D*20
$GPGLL,4923.07469558,N,00104.57598447,E,090555.83,A,D*67
$GPGGA,090555.93,4923.07469558,N,00104.57598495,E,4,11,0.023,56.263,M,47.080,M,1.000,4095*75
$GPGST,090555.93,0.365,0.017,0.015,173.325,0.017,0.015,0.022*50
$GPVTG,90.000,T,90.000,M,0.014,N,0.027,K,D*26
$GPGLL,4923.07469558,N,00104.57598495,E,090555.93,A,D*69
$GPZDA,090556.02,17,03,2020,,*6E
$GPGGA,090556.03,4923.07469558,N,00104.57598495,E,4,11,0.023,56.263,M,47.080,M,1.000,4095*7F
$GPGST,090556.03,0.365,0.017,0.015,173.325,0.017,0.015,0.022*5A
$GPVTG,90.000,T,90.000,M,0.006,N,0.012,K,D*23
$GPGLL,4923.07469558,N,00104.57598495,E,090556.03,A,D*63
$GPGGA,090556.13,4923.07469558,N,00104.57598543,E,4,11,0.023,56.263,M,47.080,M,1.000,4095*74
$GPGST,090556.13,0.377,0.017,0.015,173.325,0.017,0.015,0.022*58
$GPVTG,90.000,T,90.000,M,0.010,N,0.018,K,D*2E
$GPGLL,4923.07469558,N,00104.57598543,E,090556.13,A,D*68
$GPGGA,090556.23,4923.07469558,N,00104.57598400,E,4,11,0.023,56.263,M,47.080,M,1.000,4095*71
$GPGST,090556.23,0.377,0.017,0.015,173.325,0.017,0.015,0.022*5B
$GPVTG,90.000,T,90.000,M,0.010,N,0.018,K,D*2E
$GPGLL,4923.07469558,N,00104.57598400,E,090556.23,A,D*6D
$GPGGA,090556.33,4923.07469558,N,00104.57598400,E,4,11,0.023,56.263,M,47.080,M,1.000,4095*70
$GPGST,090556.33,0.377,0.017,0.015,173.325,0.017,0.015,0.022*5A
$GPVTG,90.000,T,90.000,M,0.002,N,0.005,K,D*21
$GPGLL,4923.07469558,N,00104.57598400,E,090556.33,A,D*6C
$GPGGA,090556.43,4923.07469558,N,00104.57598400,E,4,11,0.023,56.263,M,47.080,M,1.000,4095*77
$GPGST,090556.43,0.377,0.017,0.015,173.325,0.017,0.015,0.022*5D
$GPVTG,90.000,T,90.000,M,0.005,N,0.010,K,D*22
$GPGLL,4923.07469558,N,00104.57598400,E,090556.43,A,D*6B
$GPGGA,090556.53,4923.07469558,N,00104.57598400,E,4,11,0.023,56.263,M,47.080,M,1.000,4095*76
$GPGST,090556.53,0.377,0.017,0.015,173.325,0.017,0.015,0.022*5C
$GPVTG,90.000,T,90.000,M,0.002,N,0.005,K,D*21
$GPGLL,4923.07469558,N,00104.57598400,E,090556.53,A,D*6A
$GPGGA,090556.63,4923.07469558,N,00104.57598400,E,4,11,0.023,56.263,M,47.080,M,1.000,4095*75
$GPGST,090556.63,0.377,0.017,0.015,173.325,0.017,0.015,0.022*5F
$GPVTG,90.000,T,90.000,M,0.003,N,0.006,K,D*23
$GPGLL,4923.07469558,N,00104.57598400,E,090556.63,A,D*69
$GPGGA,090556.73,4923.07469558,N,00104.57598400,E,4,11,0.023,56.263,M,47.080,M,1.000,4095*74
$GPGST,090556.73,0.377,0.017,0.015,173.325,0.017,0.015,0.022*5E
$GPVTG,90.000,T,90.000,M,0.004,N,0.007,K,D*25
$GPGLL,4923.07469558,N,00104.57598400,E,090556.73,A,D*68
$GPGGA,090556.83,4923.07469558,N,00104.57598400,E,4,11,0.023,56.263,M,47.080,M,1.000,4095*7B
$GPGST,090556.83,0.377,0.017,0.015,173.325,0.017,0.015,0.022*51
$GPVTG,90.000,T,90.000,M,0.007,N,0.014,K,D*24
$GPGLL,4923.07469558,N,00104.57598400,E,090556.83,A,D*67
$GPGGA,090556.93,4923.07469558,N,00104.57598400,E,4,11,0.023,56.263,M,47.080,M,1.000,4095*7A
$GPGST,090556.93,0.377,0.017,0.015,173.325,0.017,0.015,0.022*50
$GPVTG,90.000,T,90.000,M,0.002,N,0.003,K,D*27
$GPGLL,4923.07469558,N,00104.57598400,E,090556.93,A,D*66
$GPZDA,090557.02,17,03,2020,,*6F
$GPGGA,090557.03,4923.07469558,N,00104.57598400,E,4,11,0.023,56.263,M,47.080,M,1.000,4095*72
$GPGST,090557.03,0.377,0.017,0.015,173.325,0.017,0.015,0.022*58
$GPVTG,90.000,T,90.000,M,0.003,N,0.007,K,D*22
$GPGLL,4923.07469558,N,00104.57598400,E,090557.03,A,D*6E
$GPGGA,090557.13,4923.07469558,N,00104.57598400,E,4,11,0.009,56.263,M,47.080,M,1.000,4095*7B
$GPGST,090557.13,0.518,0.007,0.006,178.797,0.007,0.006,0.009*59
$GPVTG,90.000,T,90.000,M,0.001,N,0.001,K,D*26
$GPGLL,4923.07469558,N,00104.57598400,E,090557.13,A,D*6F
$GPGGA,090557.23,4923.07469558,N,00104.57598400,E,4,11,0.009,56.263,M,47.080,M,1.000,4095*78
$GPGST,090557.23,0.518,0.007,0.006,178.797,0.007,0.006,0.009*5A
$GPVTG,90.000,T,90.000,M,0.004,N,0.007,K,D*25
$GPGLL,4923.07469558,N,00104.57598400,E,090557.23,A,D*6C
$GPGGA,090557.33,4923.07469558,N,00104.57598400,E,4,11,0.009,56.263,M,47.080,M,1.000,4095*79
$GPGST,090557.33,0.518,0.007,0.006,178.797,0.007,0.006,0.009*5B
$GPVTG,90.000,T,90.000,M,0.005,N,0.010,K,D*22
$GPGLL,4923.07469558,N,00104.57598400,E,090557.33,A,D*6D
$GPGGA,090557.43,4923.07469558,N,00104.57598400,E,4,11,0.009,56.263,M,47.080,M,1.000,4095*7E
$GPGST,090557.43,0.518,0.007,0.006,178.797,0.007,0.006,0.009*5C
$GPVTG,90.000,T,90.000,M,0.003,N,0.006,K,D*23
$GPGLL,4923.07469558,N,00104.57598400,E,090557.43,A,D*6A
$GPGGA,090557.53,4923.07469558,N,00104.57598400,E,4,11,0.009,56.263,M,47.080,M,1.000,4095*7F
$GPGST,090557.53,0.518,0.007,0.006,178.797,0.007,0.006,0.009*5D
$GPVTG,90.000,T,90.000,M,0.002,N,0.004,K,D*20
$GPGLL,4923.07469558,N,00104.57598400,E,090557.53,A,D*6B
$GPGGA,090557.63,4923.07469558,N,00104.57598400,E,4,11,0.009,56.263,M,47.080,M,1.000,4095*7C
$GPGST,090557.63,0.518,0.007,0.006,178.797,0.007,0.006,0.009*5E
$GPVTG,90.000,T,90.000,M,0.008,N,0.015,K,D*2A
$GPGLL,4923.07469558,N,00104.57598400,E,090557.63,A,D*68
$GPGGA,090557.73,4923.07469558,N,00104.57598400,E,4,11,0.009,56.263,M,47.080,M,1.000,4095*7D
$GPGST,090557.73,0.518,0.007,0.006,178.797,0.007,0.006,0.009*5F
$GPVTG,90.000,T,90.000,M,0.002,N,0.004,K,D*20
$GPGLL,4923.07469558,N,00104.57598400,E,090557.73,A,D*69
$GPGGA,090557.83,4923.07469558,N,00104.57598400,E,4,11,0.009,56.263,M,47.080,M,1.000,4095*72
$GPGST,090557.83,0.518,0.007,0.006,178.797,0.007,0.006,0.009*50
$GPVTG,90.000,T,90.000,M,0.002,N,0.005,K,D*21
$GPGLL,4923.07469558,N,00104.57598400,E,090557.83,A,D*66
$GPGGA,090557.93,4923.07469749,N,00104.57598400,E,4,11,0.009,56.263,M,47.080,M,1.000,4095*71
$GPGST,090557.93,0.518,0.007,0.006,178.797,0.007,0.006,0.009*51
$GPVTG,90.000,T,90.000,M,0.006,N,0.011,K,D*20
$GPGLL,4923.07469749,N,00104.57598400,E,090557.93,A,D*65
$GPZDA,090558.02,17,03,2020,,*60
$GPGGA,090558.03,4923.07469749,N,00104.57598400,E,4,11,0.009,56.263,M,47.080,M,1.000,4095*77
$GPGST,090558.03,0.518,0.007,0.006,178.797,0.007,0.006,0.009*57
$GPVTG,90.000,T,90.000,M,0.001,N,0.002,K,D*25
$GPGLL,4923.07469749,N,00104.57598400,E,090558.03,A,D*63
$GPGGA,090558.13,4923.07469749,N,00104.57598400,E,4,11,0.009,56.263,M,47.080,M,1.000,4095*76
$GPGST,090558.13,0.303,0.007,0.006,178.797,0.007,0.006,0.009*5A
$GPVTG,90.000,T,90.000,M,0.004,N,0.008,K,D*2A
$GPGLL,4923.07469749,N,00104.57598400,E,090558.13,A,D*62
$GPGGA,090558.23,4923.07469749,N,00104.57598400,E,4,11,0.009,56.263,M,47.080,M,1.000,4095*75
$GPGST,090558.23,0.303,0.007,0.006,178.797,0.007,0.006,0.009*59
$GPVTG,90.000,T,90.000,M,0.001,N,0.002,K,D*25
$GPGLL,4923.07469749,N,00104.57598400,E,090558.23,A,D*61
$GPGGA,090558.33,4923.07469749,N,00104.57598400,E,4,11,0.009,56.263,M,47.080,M,1.000,4095*74
$GPGST,090558.33,0.303,0.007,0.006,178.797,0.007,0.006,0.009*58
$GPVTG,90.000,T,90.000,M,0.005,N,0.010,K,D*22
$GPGLL,4923.07469749,N,00104.57598400,E,090558.33,A,D*60
$GPGGA,090558.43,4923.07469558,N,00104.57598590,E,4,11,0.009,56.263,M,47.080,M,1.000,4095*79
$GPGST,090558.43,0.303,0.007,0.006,178.797,0.007,0.006,0.009*5F
$GPVTG,90.000,T,90.000,M,0.011,N,0.021,K,D*25
$GPGLL,4923.07469558,N,00104.57598590,E,090558.43,A,D*6D
$GPGGA,090558.53,4923.07469558,N,00104.57598590,E,4,11,0.009,56.263,M,47.080,M,1.000,4095*78
$GPGST,090558.53,0.303,0.007,0.006,178.797,0.007,0.006,0.009*5E
$GPVTG,90.000,T,90.000,M,0.004,N,0.008,K,D*2A
$GPGLL,4923.07469558,N,00104.57598590,E,090558.53,A,D*6C
$GPGGA,090558.63,4923.07469558,N,00104.57598590,E,4,11,0.009,56.263,M,47.080,M,1.000,4095*7B
$GPGST,090558.63,0.303,0.007,0.006,178.797,0.007,0.006,0.009*5D
$GPVTG,90.000,T,90.000,M,0.014,N,0.026,K,D*27
$GPGLL,4923.07469558,N,00104.57598590,E,090558.63,A,D*6F
$GPGGA,090558.73,4923.07469558,N,00104.57598638,E,4,11,0.009,56.263,M,47.080,M,1.000,4095*7B
$GPGST,090558.73,0.303,0.007,0.006,178.797,0.007,0.006,0.009*5C
$GPVTG,90.000,T,90.000,M,0.005,N,0.010,K,D*22
$GPGLL,4923.07469558,N,00104.57598638,E,090558.73,A,D*6F
$GPGGA,090558.83,4923.07469558,N,00104.57598686,E,4,11,0.009,56.263,M,47.080,M,1.000,4095*71
$GPGST,090558.83,0.303,0.007,0.006,178.797,0.007,0.006,0.009*53
$GPVTG,90.000,T,90.000,M,0.008,N,0.015,K,D*2A
$GPGLL,4923.07469558,N,00104.57598686,E,090558.83,A,D*65
$GPGGA,090558.93,4923.07469558,N,00104.57598590,E,4,11,0.009,56.263,M,47.080,M,1.000,4095*74
$GPGST,090558.93,0.303,0.007,0.006,178.797,0.007,0.006,0.009*52
$GPVTG,90.000,T,90.000,M,0.007,N,0.014,K,D*24
$GPGLL,4923.07469558,N,00104.57598590,E,090558.93,A,D*60
$GPZDA,090559.02,17,03,2020,,*61
$GPGGA,090559.03,4923.07469558,N,00104.57598590,E,4,11,0.009,56.264,M,47.080,M,1.000,4095*7B
$GPGST,090559.03,0.303,0.007,0.006,178.797,0.007,0.006,0.009*5A
$GPVTG,90.000,T,90.000,M,0.002,N,0.005,K,D*21
$GPGLL,4923.07469558,N,00104.57598590,E,090559.03,A,D*68
$GPGGA,090559.13,4923.07469558,N,00104.57598590,E,4,11,0.009,56.264,M,47.080,M,1.000,4095*7A
$GPGST,090559.13,0.435,0.007,0.006,178.797,0.007,0.006,0.009*59
$GPVTG,90.000,T,90.000,M,0.001,N,0.002,K,D*25
$GPGLL,4923.07469558,N,00104.57598590,E,090559.13,A,D*69
$GPGGA,090559.23,4923.07469558,N,00104.57598590,E,4,11,0.009,56.264,M,47.080,M,1.000,4095*79
$GPGST,090559.23,0.435,0.007,0.006,178.797,0.007,0.006,0.009*5A
$GPVTG,90.000,T,90.000,M,0.008,N,0.015,K,D*2A
$GPGLL,4923.07469558,N,00104.57598590,E,090559.23,A,D*6A
$GPGGA,090559.33,4923.07469749,N,00104.57598543,E,4,11,0.009,56.261,M,47.080,M,1.000,4095*71
$GPGST,090559.33,0.435,0.007,0.006,178.797,0.007,0.006,0.009*5B
$GPVTG,90.000,T,90.000,M,0.001,N,0.002,K,D*25
$GPGLL,4923.07469749,N,00104.57598543,E,090559.33,A,D*67
$GPGGA,090559.43,4923.07469749,N,00104.57598590,E,4,11,0.009,56.261,M,47.080,M,1.000,4095*78
$GPGST,090559.43,0.435,0.007,0.006,178.797,0.007,0.006,0.009*5C
$GPVTG,90.000,T,90.000,M,0.006,N,0.011,K,D*20
$GPGLL,4923.07469749,N,00104.57598590,E,090559.43,A,D*6E
$GPGGA,090559.53,4923.07469749,N,00104.57598543,E,4,11,0.009,56.261,M,47.080,M,1.000,4095*77
$GPGST,090559.53,0.435,0.007,0.006,178.797,0.007,0.006,0.009*5D
$GPVTG,90.000,T,90.000,M,0.004,N,0.007,K,D*25
$GPGLL,4923.07469749,N,00104.57598543,E,090559.53,A,D*61
$GPGGA,090559.63,4923.07469749,N,00104.57598590,E,4,11,0.009,56.261,M,47.080,M,1.000,4095*7A
$GPGST,090559.63,0.435,0.007,0.006,178.797,0.007,0.006,0.009*5E
$GPVTG,90.000,T,90.000,M,0.003,N,0.007,K,D*22
$GPGLL,4923.07469749,N,00104.57598590,E,090559.63,A,D*6C
$GPGGA,090559.73,4923.07469749,N,00104.57598590,E,4,11,0.009,56.261,M,47.080,M,1.000,4095*7B
$GPGST,090559.73,0.435,0.007,0.006,178.797,0.007,0.006,0.009*5F
$GPVTG,90.000,T,90.000,M,0.005,N,0.011,K,D*23
$GPGLL,4923.07469749,N,00104.57598590,E,090559.73,A,D*6D
$GPGGA,090559.83,4923.07469749,N,00104.57598590,E,4,11,0.009,56.261,M,47.080,M,1.000,4095*74
$GPGST,090559.83,0.435,0.007,0.006,178.797,0.007,0.006,0.009*50
$GPVTG,90.000,T,90.000,M,0.002,N,0.004,K,D*20
$GPGLL,4923.07469749,N,00104.57598590,E,090559.83,A,D*62
$GPGGA,090559.93,4923.07469749,N,00104.57598590,E,4,11,0.009,56.261,M,47.080,M,1.000,4095*75
$GPGST,090559.93,0.435,0.007,0.006,178.797,0.007,0.006,0.009*51
$GPVTG,90.000,T,90.000,M,0.005,N,0.010,K,D*22
$GPGLL,4923.07469749,N,00104.57598590,E,090559.93,A,D*63
$GPZDA,090600.02,17,03,2020,,*6E
$GPGGA,090600.03,4923.07469749,N,00104.57598590,E,4,11,0.009,56.261,M,47.080,M,1.000,4095*73
$GPGST,090600.03,0.435,0.007,0.006,178.797,0.007,0.006,0.009*57
$GPVTG,90.000,T,90.000,M,0.006,N,0.011,K,D*20
$GPGLL,4923.07469749,N,00104.57598590,E,090600.03,A,D*65
$GPGGA,090600.13,4923.07469749,N,00104.57598590,E,4,11,0.009,56.261,M,47.080,M,1.000,4095*72
$GPGST,090600.13,0.634,0.007,0.006,178.797,0.007,0.006,0.009*55
$GPVTG,90.000,T,90.000,M,0.001,N,0.003,K,D*24
$GPGLL,4923.07469749,N,00104.57598590,E,090600.13,A,D*64
$GPGGA,090600.23,4923.07469749,N,00104.57598590,E,4,11,0.009,56.261,M,47.080,M,1.000,4095*71
$GPGST,090600.23,0.634,0.007,0.006,178.797,0.007,0.006,0.009*56
$GPVTG,90.000,T,90.000,M,0.009,N,0.017,K,D*29
$GPGLL,4923.07469749,N,00104.57598590,E,090600.23,A,D*67
$GPGGA,090600.33,4923.07469749,N,00104.57598590,E,4,11,0.009,56.261,M,47.080,M,1.000,4095*70
$GPGST,090600.33,0.634,0.007,0.006,178.797,0.007,0.006,0.009*57
$GPVTG,90.000,T,90.000,M,0.006,N,0.011,K,D*20
$GPGLL,4923.07469749,N,00104.57598590,E,090600.33,A,D*66
$GPGGA,090600.43,4923.07469749,N,00104.57598590,E,4,11,0.009,56.261,M,47.080,M,1.000,4095*77
$GPGST,090600.43,0.634,0.007,0.006,178.797,0.007,0.006,0.009*50
$GPVTG,90.000,T,90.000,M,0.003,N,0.007,K,D*22
$GPGLL,4923.07469749,N,00104.57598590,E,090600.43,A,D*61
$GPGGA,090600.53,4923.07469749,N,00104.57598590,E,4,11,0.009,56.261,M,47.080,M,1.000,4095*76
$GPGST,090600.53,0.634,0.007,0.006,178.797,0.007,0.006,0.009*51
$GPVTG,90.000,T,90.000,M,0.008,N,0.015,K,D*2A
$GPGLL,4923.07469749,N,00104.57598590,E,090600.53,A,D*60
$GPGGA,090600.63,4923.07469749,N,00104.57598590,E,4,11,0.009,56.261,M,47.080,M,1.000,4095*75
$GPGST,090600.63,0.634,0.007,0.006,178.797,0.007,0.006,0.009*52
$GPVTG,90.000,T,90.000,M,0.002,N,0.003,K,D*27
$GPGLL,4923.07469749,N,00104.57598590,E,090600.63,A,D*63
$GPGGA,090600.73,4923.07469749,N,00104.57598590,E,4,11,0.009,56.261,M,47.080,M,1.000,4095*74
$GPGST,090600.73,0.634,0.007,0.006,178.797,0.007,0.006,0.009*53
$GPVTG,90.000,T,90.000,M,0.005,N,0.010,K,D*22
$GPGLL,4923.07469749,N,00104.57598590,E,090600.73,A,D*62
$GPGGA,090600.83,4923.07469749,N,00104.57598590,E,4,11,0.009,56.261,M,47.080,M,1.000,4095*7B
$GPGST,090600.83,0.634,0.007,0.006,178.797,0.007,0.006,0.009*5C
$GPVTG,90.000,T,90.000,M,0.007,N,0.013,K,D*23
$GPGLL,4923.07469749,N,00104.57598590,E,090600.83,A,D*6D
$GPGGA,090600.93,4923.07469749,N,00104.57598590,E,4,11,0.009,56.261,M,47.080,M,1.000,4095*7A
$GPGST,090600.93,0.634,0.007,0.006,178.797,0.007,0.006,0.009*5D
$GPVTG,90.000,T,90.000,M,0.002,N,0.003,K,D*27
$GPGLL,4923.07469749,N,00104.57598590,E,090600.93,A,D*6C
$GPZDA,090601.02,17,03,2020,,*6F
$GPGGA,090601.03,4923.07469749,N,00104.57598590,E,4,11,0.009,56.261,M,47.080,M,1.000,4095*72
$GPGST,090601.03,0.634,0.007,0.006,178.797,0.007,0.006,0.009*55
$GPVTG,90.000,T,90.000,M,0.007,N,0.013,K,D*23
$GPGLL,4923.07469749,N,00104.57598590,E,090601.03,A,D*64
$GPGGA,090601.13,4923.07469749,N,00104.57598543,E,4,11,0.009,56.261,M,47.080,M,1.000,4095*7D
$GPGST,090601.13,0.536,0.007,0.006,178.797,0.007,0.006,0.009*55
$GPVTG,90.000,T,90.000,M,0.007,N,0.013,K,D*23
$GPGLL,4923.07469749,N,00104.57598543,E,090601.13,A,D*6B
$GPGGA,090601.23,4923.07469749,N,00104.57598543,E,4,11,0.009,56.261,M,47.080,M,1.000,4095*7E
$GPGST,090601.23,0.536,0.007,0.006,178.797,0.007,0.006,0.009*56
$GPVTG,90.000,T,90.000,M,0.004,N,0.007,K,D*25
$GPGLL,4923.07469749,N,00104.57598543,E,090601.23,A,D*68
$GPGGA,090601.33,4923.07469749,N,00104.57598543,E,4,11,0.009,56.261,M,47.080,M,1.000,4095*7F
$GPGST,090601.33,0.536,0.007,0.006,178.797,0.007,0.006,0.009*57
$GPVTG,90.000,T,90.000,M,0.010,N,0.018,K,D*2E
$GPGLL,4923.07469749,N,00104.57598543,E,090601.33,A,D*69
$GPGGA,090601.43,4923.07469749,N,00104.57598543,E,4,11,0.009,56.262,M,47.080,M,1.000,4095*7B
$GPGST,090601.43,0.536,0.007,0.006,178.797,0.007,0.006,0.009*50
$GPVTG,90.000,T,90.000,M,0.001,N,0.002,K,D*25
$GPGLL,4923.07469749,N,00104.57598543,E,090601.43,A,D*6E
$GPGGA,090601.53,4923.07469749,N,00104.57598543,E,4,11,0.009,56.262,M,47.080,M,1.000,4095*7A
$GPGST,090601.53,0.536,0.007,0.006,178.797,0.007,0.006,0.009*51
$GPVTG,90.000,T,90.000,M,0.008,N,0.015,K,D*2A
$GPGLL,4923.07469749,N,00104.57598543,E,090601.53,A,D*6F
$GPGGA,090601.63,4923.07469749,N,00104.57598590,E,4,11,0.010,56.262,M,47.080,M,1.000,4095*7F
$GPGST,090601.63,0.536,0.007,0.007,177.079,0.007,0.007,0.009*5A
$GPVTG,90.000,T,90.000,M,0.006,N,0.011,K,D*20
$GPGLL,4923.07469749,N,00104.57598590,E,090601.63,A,D*62
$GPGGA,090601.73,4923.07469749,N,00104.57598590,E,4,11,0.010,56.262,M,47.080,M,1.000,4095*7E
$GPGST,090601.73,0.536,0.007,0.007,177.079,0.007,0.007,0.009*5B
$GPVTG,90.000,T,90.000,M,0.001,N,0.003,K,D*24
$GPGLL,4923.07469749,N,00104.57598590,E,090601.73,A,D*63
$GPGGA,090601.83,4923.07469749,N,00104.57598590,E,4,11,0.010,56.262,M,47.080,M,1.000,4095*71
$GPGST,090601.83,0.536,0.007,0.007,177.079,0.007,0.007,0.009*54
$GPVTG,90.000,T,90.000,M,0.008,N,0.015,K,D*2A
$GPGLL,4923.07469749,N,00104.57598590,E,090601.83,A,D*6C
$GPGGA,090601.93,4923.07469749,N,00104.57598590,E,4,11,0.010,56.262,M,47.080,M,1.000,4095*70
$GPGST,090601.93,0.536,0.007,0.007,177.079,0.007,0.007,0.009*55
$GPVTG,90.000,T,90.000,M,0.004,N,0.008,K,D*2A
$GPGLL,4923.07469749,N,00104.57598590,E,090601.93,A,D*6D
$GPZDA,090602.02,17,03,2020,,*6C
$GPGGA,090602.03,4923.07469749,N,00104.57598590,E,4,11,0.010,56.262,M,47.080,M,1.000,4095*7A
$GPGST,090602.03,0.536,0.007,0.007,177.079,0.007,0.007,0.009*5F
$GPVTG,90.000,T,90.000,M,0.004,N,0.009,K,D*2B
$GPGLL,4923.07469749,N,00104.57598590,E,090602.03,A,D*67
$GPGGA,090602.13,4923.07469749,N,00104.57598590,E,4,11,0.010,56.262,M,47.080,M,1.000,4095*7B
$GPGST,090602.13,0.504,0.007,0.007,177.079,0.007,0.007,0.009*5F
$GPVTG,90.000,T,90.000,M,0.005,N,0.009,K,D*2A
$GPGLL,4923.07469749,N,00104.57598590,E,090602.13,A,D*66
$GPGGA,090602.23,4923.07469749,N,00104.57598590,E,4,11,0.010,56.262,M,47.080,M,1.000,4095*78
$GPGST,090602.23,0.504,0.007,0.007,177.079,0.007,0.007,0.009*5C
$GPVTG,90.000,T,90.000,M,0.001,N,0.001,K,D*26
$GPGLL,4923.07469749,N,00104.57598590,E,090602.23,A,D*65
$GPGGA,090602.33,4923.07469749,N,00104.57598590,E,4,11,0.010,56.262,M,47.080,M,1.000,4095*79
$GPGST,090602.33,0.504,0.007,0.007,177.079,0.007,0.007,0.009*5D
$GPVTG,90.000,T,90.000,M,0.004,N,0.008,K,D*2A
$GPGLL,4923.07469749,N,00104.57598590,E,090602.33,A,D*64
$GPGGA,090602.43,4923.07469749,N,00104.57598590,E,4,11,0.010,56.262,M,47.080,M,1.000,4095*7E
$GPGST,090602.43,0.504,0.007,0.007,177.079,0.007,0.007,0.009*5A
$GPVTG,90.000,T,90.000,M,0.003,N,0.006,K,D*23
$GPGLL,4923.07469749,N,00104.57598590,E,090602.43,A,D*63
$GPGGA,090602.53,4923.07469749,N,00104.57598257,E,4,11,0.010,56.262,M,47.080,M,1.000,4095*73
$GPGST,090602.53,0.504,0.007,0.007,177.079,0.007,0.007,0.009*5B
$GPVTG,90.000,T,90.000,M,0.001,N,0.003,K,D*24
$GPGLL,4923.07469749,N,00104.57598257,E,090602.53,A,D*6E
$GPGGA,090602.63,4923.07469749,N,00104.57598257,E,4,11,0.010,56.262,M,47.080,M,1.000,4095*70
$GPGST,090602.63,0.504,0.007,0.007,177.079,0.007,0.007,0.009*58
$GPVTG,90.000,T,90.000,M,0.001,N,0.002,K,D*25
$GPGLL,4923.07469749,N,00104.57598257,E,090602.63,A,D*6D
$GPGGA,090602.73,4923.07469749,N,00104.57598209,E,4,11,0.010,56.262,M,47.080,M,1.000,4095*7A
$GPGST,090602.73,0.504,0.007,0.007,177.079,0.007,0.007,0.009*59
$GPVTG,90.000,T,90.000,M,0.005,N,0.009,K,D*2A
$GPGLL,4923.07469749,N,00104.57598209,E,090602.73,A,D*67
$GPGGA,090602.83,4923.07469749,N,00104.57598209,E,4,11,0.010,56.262,M,47.080,M,1.000,4095*75
$GPGST,090602.83,0.504,0.007,0.007,177.079,0.007,0.007,0.009*56
$GPVTG,90.000,T,90.000,M,0.003,N,0.005,K,D*20
$GPGLL,4923.07469749,N,00104.57598209,E,090602.83,A,D*68
$GPGGA,090602.93,4923.07469749,N,00104.57598209,E,4,11,0.010,56.262,M,47.080,M,1.000,4095*74
$GPGST,090602.93,0.504,0.007,0.007,177.079,0.007,0.007,0.009*57
$GPVTG,90.000,T,90.000,M,0.004,N,0.007,K,D*25
$GPGLL,4923.07469749,N,00104.57598209,E,090602.93,A,D*69
$GPZDA,090603.02,17,03,2020,,*6D
$GPGGA,090603.03,4923.07469749,N,00104.57598209,E,4,11,0.010,56.262,M,47.080,M,1.000,4095*7C
$GPGST,090603.03,0.504,0.007,0.007,177.079,0.007,0.007,0.009*5F
$GPVTG,90.000,T,90.000,M,0.003,N,0.006,K,D*23
$GPGLL,4923.07469749,N,00104.57598209,E,090603.03,A,D*61
$GPGGA,090603.13,4923.07469749,N,00104.57598209,E,4,11,0.010,56.262,M,47.080,M,1.000,4095*7D
$GPGST,090603.13,0.384,0.007,0.007,177.079,0.007,0.007,0.009*50
$GPVTG,90.000,T,90.000,M,0.002,N,0.004,K,D*20
$GPGLL,4923.07469749,N,00104.57598209,E,090603.13,A,D*60
$GPGGA,090603.23,4923.07469749,N,00104.57598209,E,4,11,0.010,56.262,M,47.080,M,1.000,4095*7E
$GPGST,090603.23,0.384,0.007,0.007,177.079,0.007,0.007,0.009*53
$GPVTG,90.000,T,90.000,M,0.005,N,0.010,K,D*22
$GPGLL,4923.07469749,N,00104.57598209,E,090603.23,A,D*63
$GPGGA,090603.33,4923.07469749,N,00104.57598209,E,4,11,0.010,56.262,M,47.080,M,1.000,4095*7F
$GPGST,090603.33,0.384,0.007,0.007,177.079,0.007,0.007,0.009*52
$GPVTG,90.000,T,90.000,M,0.000,N,0.000,K,D*26
$GPGLL,4923.07469749,N,00104.57598209,E,090603.33,A,D*62
$GPGGA,090603.43,4923.07469749,N,00104.57598304,E,4,11,0.010,56.262,M,47.080,M,1.000,4095*74
$GPGST,090603.43,0.384,0.007,0.007,177.079,0.007,0.007,0.009*55
$GPVTG,90.000,T,90.000,M,0.003,N,0.006,K,D*23
$GPGLL,4923.07469749,N,00104.57598304,E,090603.43,A,D*69
$GPGGA,090603.53,4923.07469749,N,00104.57598304,E,4,11,0.010,56.262,M,47.080,M,1.000,4095*75
$GPGST,090603.53,0.384,0.007,0.007,177.079,0.007,0.007,0.009*54
$GPVTG,90.000,T,90.000,M,0.007,N,0.013,K,D*23
$GPGLL,4923.07469749,N,00104.57598304,E,090603.53,A,D*68
$GPGGA,090603.63,4923.07469749,N,00104.57598304,E,4,11,0.010,56.262,M,47.080,M,1.000,4095*76
$GPGST,090603.63,0.384,0.007,0.007,177.079,0.007,0.007,0.009*57
$GPVTG,90.000,T,90.000,M,0.003,N,0.006,K,D*23
$GPGLL,4923.07469749,N,00104.57598304,E,090603.63,A,D*6B
$GPGGA,090603.73,4923.07469749,N,00104.57598304,E,4,11,0.010,56.262,M,47.080,M,1.000,4095*77
$GPGST,090603.73,0.384,0.007,0.007,177.079,0.007,0.007,0.009*56
$GPVTG,90.000,T,90.000,M,0.007,N,0.013,K,D*23
$GPGLL,4923.07469749,N,00104.57598304,E,090603.73,A,D*6A
$GPGGA,090603.83,4923.07469749,N,00104.57598257,E,4,11,0.010,56.262,M,47.080,M,1.000,4095*7F
$GPGST,090603.83,0.384,0.007,0.007,177.079,0.007,0.007,0.009*59
$GPVTG,90.000,T,90.000,M,0.004,N,0.008,K,D*2A
$GPGLL,4923.07469749,N,00104.57598257,E,090603.83,A,D*62
$GPGGA,090603.93,4923.07469749,N,00104.57598257,E,4,11,0.010,56.262,M,47.080,M,1.000,4095*7E
$GPGST,090603.93,0.384,0.007,0.007,177.079,0.007,0.007,0.009*58
$GPVTG,90.000,T,90.000,M,0.001,N,0.002,K,D*25
$GPGLL,4923.07469749,N,00104.57598257,E,090603.93,A,D*63
$GPZDA,090604.02,17,03,2020,,*6A
$GPGGA,090604.03,4923.07469749,N,00104.57598257,E,4,11,0.010,56.262,M,47.080,M,1.000,4095*70
$GPGST,090604.03,0.384,0.007,0.007,177.079,0.007,0.007,0.009*56
$GPVTG,90.000,T,90.000,M,0.007,N,0.013,K,D*23
$GPGLL,4923.07469749,N,00104.57598257,E,090604.03,A,D*6D
$GPGGA,090604.13,4923.07469749,N,00104.57598257,E,4,11,0.010,56.262,M,47.080,M,1.000,4095*71
$GPGST,090604.13,0.476,0.007,0.007,177.079,0.007,0.007,0.009*5D
$GPVTG,90.000,T,90.000,M,0.002,N,0.003,K,D*27
$GPGLL,4923.07469749,N,00104.57598257,E,090604.13,A,D*6C
$GPGGA,090604.23,4923.07469749,N,00104.57598257,E,4,11,0.010,56.263,M,47.080,M,1.000,4095*73
$GPGST,090604.23,0.476,0.007,0.007,177.079,0.007,0.007,0.009*5E
$GPVTG,90.000,T,90.000,M,0.006,N,0.012,K,D*23
$GPGLL,4923.07469749,N,00104.57598257,E,090604.23,A,D*6F
$GPGGA,090604.33,4923.07469749,N,00104.57598352,E,4,11,0.010,56.261,M,47.080,M,1.000,4095*74
$GPGST,090604.33,0.476,0.007,0.007,177.079,0.007,0.007,0.009*5F
$GPVTG,90.000,T,90.000,M,0.006,N,0.011,K,D*20
$GPGLL,4923.07469749,N,00104.57598352,E,090604.33,A,D*6A
$GPGGA,090604.43,4923.07469749,N,00104.57598352,E,4,11,0.010,56.261,M,47.080,M,1.000,4095*73
$GPGST,090604.43,0.476,0.007,0.007,177.079,0.007,0.007,0.009*58
$GPVTG,90.000,T,90.000,M,0.003,N,0.006,K,D*23
$GPGLL,4923.07469749,N,00104.57598352,E,090604.43,A,D*6D
$GPGGA,090604.53,4923.07469749,N,00104.57598352,E,4,11,0.010,56.261,M,47.080,M,1.000,4095*72
$GPGST,090604.53,0.476,0.007,0.007,177.079,0.007,0.007,0.009*59
$GPVTG,90.000,T,90.000,M,0.008,N,0.014,K,D*2B
$GPGLL,4923.07469749,N,00104.57598352,E,090604.53,A,D*6C
$GPGGA,090604.63,4923.07469749,N,00104.57598352,E,4,11,0.010,56.261,M,47.080,M,1.000,4095*71
$GPGST,090604.63,0.476,0.007,0.007,177.079,0.007,0.007,0.009*5A
$GPVTG,90.000,T,90.000,M,0.002,N,0.005,K,D*21
$GPGLL,4923.07469749,N,00104.57598352,E,090604.63,A,D*6F
$GPGGA,090604.73,4923.07469749,N,00104.57598352,E,4,11,0.010,56.261,M,47.080,M,1.000,4095*70
$GPGST,090604.73,0.476,0.007,0.007,177.079,0.007,0.007,0.009*5B
$GPVTG,90.000,T,90.000,M,0.001,N,0.002,K,D*25
$GPGLL,4923.07469749,N,00104.57598352,E,090604.73,A,D*6E
$GPGGA,090604.83,4923.07469749,N,00104.57598352,E,4,11,0.010,56.261,M,47.080,M,1.000,4095*7F
$GPGST,090604.83,0.476,0.007,0.007,177.079,0.007,0.007,0.009*54
$GPVTG,90.000,T,90.000,M,0.009,N,0.016,K,D*28
$GPGLL,4923.07469749,N,00104.57598352,E,090604.83,A,D*61
$GPGGA,090604.93,4923.07469749,N,00104.57598352,E,4,11,0.010,56.261,M,47.080,M,1.000,4095*7E
$GPGST,090604.93,0.476,0.007,0.007,177.079,0.007,0.007,0.009*55
$GPVTG,90.000,T,90.000,M,0.002,N,0.004,K,D*20
$GPGLL,4923.07469749,N,00104.57598352,E,090604.93,A,D*60
$GPZDA,090605.02,17,03,2020,,*6B
$GPGGA,090605.03,4923.07469749,N,00104.57598352,E,4,11,0.010,56.261,M,47.080,M,1.000,4095*76
$GPGST,090605.03,0.476,0.007,0.007,177.079,0.007,0.007,0.009*5D
$GPVTG,90.000,T,90.000,M,0.004,N,0.008,K,D*2A
$GPGLL,4923.07469749,N,00104.57598352,E,090605.03,A,D*68
$GPGGA,090605.13,4923.07469749,N,00104.57598352,E,4,11,0.010,56.261,M,47.080,M,1.000,4095*77
$GPGST,090605.13,0.442,0.007,0.007,177.079,0.007,0.007,0.009*5B
$GPVTG,90.000,T,90.000,M,0.006,N,0.012,K,D*23
$GPGLL,4923.07469749,N,00104.57598352,E,090605.13,A,D*69
$GPGGA,090605.23,4923.07469749,N,00104.57598400,E,4,11,0.010,56.260,M,47.080,M,1.000,4095*75
$GPGST,090605.23,0.442,0.007,0.007,177.079,0.007,0.007,0.009*58
$GPVTG,90.000,T,90.000,M,0.004,N,0.009,K,D*2B
$GPGLL,4923.07469749,N,00104.57598400,E,090605.23,A,D*6A
$GPGGA,090605.33,4923.07469749,N,00104.57598400,E,4,11,0.010,56.260,M,47.080,M,1.000,4095*74
$GPGST,090605.33,0.442,0.007,0.007,177.079,0.007,0.007,0.009*59
$GPVTG,90.000,T,90.000,M,0.007,N,0.013,K,D*23
$GPGLL,4923.07469749,N,00104.57598400,E,090605.33,A,D*6B
$GPGGA,090605.43,4923.07469749,N,00104.57598400,E,4,11,0.010,56.260,M,47.080,M,1.000,4095*73
$GPGST,090605.43,0.442,0.007,0.007,177.079,0.007,0.007,0.009*5E
$GPVTG,90.000,T,90.000,M,0.001,N,0.002,K,D*25
$GPGLL,4923.07469749,N,00104.57598400,E,090605.43,A,D*6C
$GPGGA,090605.53,4923.07469749,N,00104.57598447,E,4,11,0.010,56.259,M,47.080,M,1.000,4095*7B
$GPGST,090605.53,0.442,0.007,0.007,177.079,0.007,0.007,0.009*5F
$GPVTG,90.000,T,90.000,M,0.004,N,0.007,K,D*25
$GPGLL,4923.07469749,N,00104.57598447,E,090605.53,A,D*6E
$GPGGA,090605.63,4923.07469749,N,00104.57598400,E,4,11,0.010,56.260,M,47.080,M,1.000,4095*71
$GPGST,090605.63,0.442,0.007,0.007,177.079,0.007,0.007,0.009*5C
$GPVTG,90.000,T,90.000,M,0.003,N,0.006,K,D*23
$GPGLL,4923.07469749,N,00104.57598400,E,090605.63,A,D*6E
$GPGGA,090605.73,4923.07469749,N,00104.57598400,E,4,11,0.010,56.260,M,47.080,M,1.000,4095*70
$GPGST,090605.73,0.442,0.007,0.007,177.079,0.007,0.007,0.009*5D
$GPVTG,90.000,T,90.000,M,0.002,N,0.004,K,D*20
$GPGLL,4923.07469749,N,00104.57598400,E,090605.73,A,D*6F
$GPGGA,090605.83,4923.07469749,N,00104.57598447,E,4,11,0.010,56.260,M,47.080,M,1.000,4095*7C
$GPGST,090605.83,0.442,0.007,0.007,177.079,0.007,0.007,0.009*52
$GPVTG,90.000,T,90.000,M,0.002,N,0.004,K,D*20
$GPGLL,4923.07469749,N,00104.57598447,E,090605.83,A,D*63
$GPGGA,090605.93,4923.07469749,N,00104.57598447,E,4,11,0.010,56.260,M,47.080,M,1.000,4095*7D
$GPGST,090605.93,0.442,0.007,0.007,177.079,0.007,0.007,0.009*53
$GPVTG,90.000,T,90.000,M,0.005,N,0.010,K,D*22
$GPGLL,4923.07469749,N,00104.57598447,E,090605.93,A,D*62
$GPZDA,090606.02,17,03,2020,,*68
$GPGGA,090606.03,4923.07469749,N,00104.57598447,E,4,11,0.010,56.260,M,47.080,M,1.000,4095*77
$GPGST,090606.03,0.442,0.007,0.007,177.079,0.007,0.007,0.009*59
$GPVTG,90.000,T,90.000,M,0.002,N,0.004,K,D*20
$GPGLL,4923.07469749,N,00104.57598447,E,090606.03,A,D*68
$GPGGA,090606.13,4923.07469749,N,00104.57598447,E,4,10,0.008,56.260,M,47.080,M,1.000,4095*7E
$GPGST,090606.13,0.289,0.006,0.005,176.486,0.006,0.005,0.008*5D
$GPVTG,90.000,T,90.000,M,0.006,N,0.012,K,D*23
$GPGLL,4923.07469749,N,00104.57598447,E,090606.13,A,D*69
$GPGGA,090606.23,4923.07469749,N,00104.57598447,E,4,10,0.008,56.260,M,47.080,M,1.000,4095*7D
$GPGST,090606.23,0.289,0.006,0.005,176.486,0.006,0.005,0.008*5E
$GPVTG,90.000,T,90.000,M,0.002,N,0.005,K,D*21
$GPGLL,4923.07469749,N,00104.57598447,E,090606.23,A,D*6A
$GPGGA,090606.33,4923.07469749,N,00104.57598447,E,4,10,0.008,56.260,M,47.080,M,1.000,4095*7C
$GPGST,090606.33,0.289,0.006,0.005,176.486,0.006,0.005,0.008*5F
$GPVTG,90.000,T,90.000,M,0.004,N,0.007,K,D*25
$GPGLL,4923.07469749,N,00104.57598447,E,090606.33,A,D*6B
$GPGGA,090606.43,4923.07469749,N,00104.57598447,E,4,10,0.008,56.260,M,47.080,M,1.000,4095*7B
$GPGST,090606.43,0.289,0.006,0.005,176.486,0.006,0.005,0.008*58
$GPVTG,90.000,T,90.000,M,0.005,N,0.010,K,D*22
$GPGLL,4923.07469749,N,00104.57598447,E,090606.43,A,D*6C
$GPGGA,090606.53,4923.07469749,N,00104.57598495,E,4,10,0.008,56.259,M,47.080,M,1.000,4095*7F
$GPGST,090606.53,0.289,0.006,0.005,176.486,0.006,0.005,0.008*59
$GPVTG,90.000,T,90.000,M,0.003,N,0.006,K,D*23
$GPGLL,4923.07469749,N,00104.57598495,E,090606.53,A,D*62
$GPGGA,090606.63,4923.07469749,N,00104.57598495,E,4,10,0.008,56.259,M,47.080,M,1.000,4095*7C
$GPGST,090606.63,0.289,0.006,0.005,176.486,0.006,0.005,0.008*5A
$GPVTG,90.000,T,90.000,M,0.002,N,0.003,K,D*27
$GPGLL,4923.07469749,N,00104.57598495,E,090606.63,A,D*61
$GPGGA,090606.73,4923.07469749,N,00104.57598495,E,4,10,0.008,56.259,M,47.080,M,1.000,4095*7D
$GPGST,090606.73,0.289,0.006,0.005,176.486,0.006,0.005,0.008*5B
$GPVTG,90.000,T,90.000,M,0.009,N,0.017,K,D*29
$GPGLL,4923.07469749,N,00104.57598495,E,090606.73,A,D*60
$GPGGA,090606.83,4923.07469749,N,00104.57598495,E,4,10,0.008,56.259,M,47.080,M,1.000,4095*72
$GPGST,090606.83,0.289,0.006,0.005,176.486,0.006,0.005,0.008*54
$GPVTG,90.000,T,90.000,M,0.002,N,0.004,K,D*20
$GPGLL,4923.07469749,N,00104.57598495,E,090606.83,A,D*6F
$GPGGA,090606.93,4923.07469749,N,00104.57598495,E,4,10,0.008,56.259,M,47.080,M,1.000,4095*73
$GPGST,090606.93,0.289,0.006,0.005,176.486,0.006,0.005,0.008*55
$GPVTG,90.000,T,90.000,M,0.009,N,0.017,K,D*29
$GPGLL,4923.07469749,N,00104.57598495,E,090606.93,A,D*6E
$GPZDA,090607.02,17,03,2020,,*69
$GPGGA,090607.03,4923.07469749,N,00104.57598495,E,4,10,0.008,56.259,M,47.080,M,1.000,4095*7B
$GPGST,090607.03,0.289,0.006,0.005,176.486,0.006,0.005,0.008*5D
$GPVTG,90.000,T,90.000,M,0.003,N,0.007,K,D*22
$GPGLL,4923.07469749,N,00104.57598495,E,090607.03,A,D*66
$GPGGA,090607.13,4923.07469749,N,00104.57598495,E,4,10,0.008,56.259,M,47.080,M,1.000,4095*7A
$GPGST,090607.13,0.289,0.006,0.005,176.486,0.006,0.005,0.008*5C
$GPVTG,90.000,T,90.000,M,0.004,N,0.008,K,D*2A
$GPGLL,4923.07469749,N,00104.57598495,E,090607.13,A,D*67
$GPGGA,090607.23,4923.07469749,N,00104.57598495,E,4,10,0.008,56.259,M,47.080,M,1.000,4095*79
$GPGST,090607.23,0.289,0.006,0.005,176.486,0.006,0.005,0.008*5F
$GPVTG,90.000,T,90.000,M,0.005,N,0.009,K,D*2A
$GPGLL,4923.07469749,N,00104.57598495,E,090607.23,A,D*64
$GPGGA,090607.33,4923.07469749,N,00104.57598495,E,4,10,0.008,56.259,M,47.080,M,1.000,4095*78
$GPGST,090607.33,0.289,0.006,0.005,176.486,0.006,0.005,0.008*5E
$GPVTG,90.000,T,90.000,M,0.001,N,0.001,K,D*26
$GPGLL,4923.07469749,N,00104.57598495,E,090607.33,A,D*65
$GPGGA,090607.43,4923.07469749,N,00104.57598495,E,4,10,0.008,56.260,M,47.080,M,1.000,4095*75
$GPGST,090607.43,0.289,0.006,0.005,176.486,0.006,0.005,0.008*59
$GPVTG,90.000,T,90.000,M,0.005,N,0.009,K,D*2A
$GPGLL,4923.07469749,N,00104.57598495,E,090607.43,A,D*62
$GPGGA,090607.53,4923.07469749,N,00104.57598495,E,4,10,0.008,56.260,M,47.080,M,1.000,4095*74
$GPGST,090607.53,0.289,0.006,0.005,176.486,0.006,0.005,0.008*58
$GPVTG,90.000,T,90.000,M,0.007,N,0.014,K,D*24
$GPGLL,4923.07469749,N,00104.57598495,E,090607.53,A,D*63
$GPGGA,090607.63,4923.07469749,N,00104.57598543,E,4,10,0.008,56.260,M,47.080,M,1.000,4095*7D
$GPGST,090607.63,0.289,0.006,0.005,176.486,0.006,0.005,0.008*5B
$GPVTG,90.000,T,90.000,M,0.003,N,0.006,K,D*23
$GPGLL,4923.07469749,N,00104.57598543,E,090607.63,A,D*6A
$GPGGA,090607.73,4923.07469749,N,00104.57598543,E,4,10,0.008,56.260,M,47.080,M,1.000,4095*7C
$GPGST,090607.73,0.289,0.006,0.005,176.486,0.006,0.005,0.008*5A
$GPVTG,90.000,T,90.000,M,0.009,N,0.018,K,D*26
$GPGLL,4923.07469749,N,00104.57598543,E,090607.73,A,D*6B
$GPGGA,090607.83,4923.07469749,N,00104.57598543,E,4,10,0.008,56.260,M,47.080,M,1.000,4095*73
$GPGST,090607.83,0.289,0.006,0.005,176.486,0.006,0.005,0.008*55
$GPVTG,90.000,T,90.000,M,0.005,N,0.010,K,D*22
$GPGLL,4923.07469749,N,00104.57598543,E,090607.83,A,D*64
$GPGGA,090607.93,4923.07469749,N,00104.57598543,E,4,10,0.008,56.260,M,47.080,M,1.000,4095*72
$GPGST,090607.93,0.289,0.006,0.005,176.486,0.006,0.005,0.008*54
$GPVTG,90.000,T,90.000,M,0.004,N,0.008,K,D*2A
$GPGLL,4923.07469749,N,00104.57598543,E,090607.93,A,D*65
$GPZDA,090608.02,17,03,2020,,*66
$GPGGA,090608.03,4923.07469749,N,00104.57598543,E,4,10,0.008,56.260,M,47.080,M,1.000,4095*74
$GPGST,090608.03,0.289,0.006,0.005,176.486,0.006,0.005,0.008*52
$GPVTG,90.000,T,90.000,M,0.003,N,0.006,K,D*23
$GPGLL,4923.07469749,N,00104.57598543,E,090608.03,A,D*63
$GPGGA,090608.13,4923.07469749,N,00104.57598543,E,4,10,0.008,56.260,M,47.080,M,1.000,4095*75
$GPGST,090608.13,0.409,0.006,0.005,176.486,0.006,0.005,0.008*5D
$GPVTG,90.000,T,90.000,M,0.006,N,0.012,K,D*23
$GPGLL,4923.07469749,N,00104.57598543,E,090608.13,A,D*62
$GPGGA,090608.23,4923.07469749,N,00104.57598543,E,4,10,0.008,56.260,M,47.080,M,1.000,4095*76
$GPGST,090608.23,0.409,0.006,0.005,176.486,0.006,0.005,0.008*5E
$GPVTG,90.000,T,90.000,M,0.003,N,0.007,K,D*22
$GPGLL,4923.07469749,N,00104.57598543,E,090608.23,A,D*61
$GPGGA,090608.33,4923.07469749,N,00104.57598257,E,4,10,0.008,56.260,M,47.080,M,1.000,4095*75
$GPGST,090608.33,0.409,0.006,0.005,176.486,0.006,0.005,0.008*5F
$GPVTG,90.000,T,90.000,M,0.003,N,0.007,K,D*22
$GPGLL,4923.07469749,N,00104.57598257,E,090608.33,A,D*62
$GPGGA,090608.43,4923.07469749,N,00104.57598209,E,4,10,0.008,56.261,M,47.080,M,1.000,4095*78
$GPGST,090608.43,0.409,0.006,0.005,176.486,0.006,0.005,0.008*58
$GPVTG,90.000,T,90.000,M,0.001,N,0.002,K,D*25
$GPGLL,4923.07469749,N,00104.57598209,E,090608.43,A,D*6E
$GPGGA,090608.53,4923.07469558,N,00104.57598209,E,4,10,0.008,56.261,M,47.080,M,1.000,4095*7B
$GPGST,090608.53,0.409,0.006,0.005,176.486,0.006,0.005,0.008*59
$GPVTG,90.000,T,90.000,M,0.007,N,0.014,K,D*24
$GPGLL,4923.07469558,N,00104.57598209,E,090608.53,A,D*6D
$GPGGA,090608.63,4923.07469558,N,00104.57598209,E,4,10,0.008,56.261,M,47.080,M,1.000,4095*78
$GPGST,090608.63,0.409,0.006,0.005,176.486,0.006,0.005,0.008*5A
$GPVTG,90.000,T,90.000,M,0.006,N,0.011,K,D*20
$GPGLL,4923.07469558,N,00104.57598209,E,090608.63,A,D*6E
$GPGGA,090608.73,4923.07469558,N,00104.57598209,E,4,10,0.008,56.261,M,47.080,M,1.000,4095*79
$GPGST,090608.73,0.409,0.006,0.005,176.486,0.006,0.005,0.008*5B
$GPVTG,90.000,T,90.000,M,0.002,N,0.004,K,D*20
$GPGLL,4923.07469558,N,00104.57598209,E,090608.73,A,D*6F
$GPGGA,090608.83,4923.07469558,N,00104.57598257,E,4,10,0.008,56.260,M,47.080,M,1.000,4095*7C
$GPGST,090608.83,0.409,0.006,0.005,176.486,0.006,0.005,0.008*54
$GPVTG,90.000,T,90.000,M,0.007,N,0.013,K,D*23
$GPGLL,4923.07469558,N,00104.57598257,E,090608.83,A,D*6B
$GPGGA,090608.93,4923.07469558,N,00104.57598257,E,4,10,0.008,56.260,M,47.080,M,1.000,4095*7D
$GPGST,090608.93,0.409,0.006,0.005,176.486,0.006,0.005,0.008*55
$GPVTG,90.000,T,90.000,M,0.004,N,0.008,K,D*2A
$GPGLL,4923.07469558,N,00104.57598257,E,090608.93,A,D*6A
$GPZDA,090609.02,17,03,2020,,*67
$GPGGA,090609.03,4923.07469558,N,00104.57598304,E,4,10,0.008,56.260,M,47.080,M,1.000,4095*72
$GPGST,090609.03,0.409,0.006,0.005,176.486,0.006,0.005,0.008*5D
$GPVTG,90.000,T,90.000,M,0.001,N,0.002,K,D*25
$GPGLL,4923.07469558,N,00104.57598304,E,090609.03,A,D*65
$GPGGA,090609.13,4923.07469558,N,00104.57598304,E,4,10,0.008,56.260,M,47.080,M,1.000,4095*73
$GPGST,090609.13,0.384,0.006,0.005,176.486,0.006,0.005,0.008*5E
$GPVTG,90.000,T,90.000,M,0.007,N,0.014,K,D*24
$GPGLL,4923.07469558,N,00104.57598304,E,090609.13,A,D*64
$GPGGA,090609.23,4923.07469558,N,00104.57598018,E,4,10,0.008,56.261,M,47.080,M,1.000,4095*7F
$GPGST,090609.23,0.384,0.006,0.005,176.486,0.006,0.005,0.008*5D
$GPVTG,90.000,T,90.000,M,0.003,N,0.006,K,D*23
$GPGLL,4923.07469558,N,00104.57598018,E,090609.23,A,D*69
$GPGGA,090609.33,4923.07469558,N,00104.57598018,E,4,10,0.008,56.261,M,47.080,M,1.000,4095*7E
$GPGST,090609.33,0.384,0.006,0.005,176.486,0.006,0.005,0.008*5C
$GPVTG,90.000,T,90.000,M,0.006,N,0.011,K,D*20
$GPGLL,4923.07469558,N,00104.57598018,E,090609.33,A,D*68
$GPGGA,090609.43,4923.07469558,N,00104.57598018,E,4,10,0.008,56.261,M,47.080,M,1.000,4095*79
$GPGST,090609.43,0.384,0.006,0.005,176.486,0.006,0.005,0.008*5B
$GPVTG,90.000,T,90.000,M,0.003,N,0.006,K,D*23
$GPGLL,4923.07469558,N,00104.57598018,E,090609.43,A,D*6F
$GPGGA,090609.53,4923.07469558,N,00104.57598018,E,4,10,0.008,56.261,M,47.080,M,1.000,4095*78
$GPGST,090609.53,0.384,0.006,0.005,176.486,0.006,0.005,0.008*5A
$GPVTG,90.000,T,90.000,M,0.003,N,0.007,K,D*22
$GPGLL,4923.07469558,N,00104.57598018,E,090609.53,A,D*6E
$GPGGA,090609.63,4923.07469558,N,00104.57598018,E,4,10,0.008,56.261,M,47.080,M,1.000,4095*7B
$GPGST,090609.63,0.384,0.006,0.005,176.486,0.006,0.005,0.008*59
$GPVTG,90.000,T,90.000,M,0.008,N,0.016,K,D*29
$GPGLL,4923.07469558,N,00104.57598018,E,090609.63,A,D*6D
$GPGGA,090609.73,4923.07469558,N,00104.57598018,E,4,10,0.008,56.261,M,47.080,M,1.000,4095*7A
$GPGST,090609.73,0.384,0.006,0.005,176.486,0.006,0.005,0.008*58
$GPVTG,90.000,T,90.000,M,0.003,N,0.006,K,D*23
$GPGLL,4923.07469558,N,00104.57598018,E,090609.73,A,D*6C
$GPGGA,090609.83,4923.07469558,N,00104.57598018,E,4,10,0.008,56.261,M,47.080,M,1.000,4095*75
$GPGST,090609.83,0.384,0.006,0.005,176.486,0.006,0.005,0.008*57
$GPVTG,90.000,T,90.000,M,0.005,N,0.010,K,D*22
$GPGLL,4923.07469558,N,00104.57598018,E,090609.83,A,D*63
$GPGGA,090609.93,4923.07469749,N,00104.57598018,E,4,10,0.008,56.261,M,47.080,M,1.000,4095*76
$GPGST,090609.93,0.384,0.006,0.005,176.486,0.006,0.005,0.008*56
$GPVTG,90.000,T,90.000,M,0.006,N,0.011,K,D*20
$GPGLL,4923.07469749,N,00104.57598018,E,090609.93,A,D*60
$GPZDA,090610.02,17,03,2020,,*6F
$GPGGA,090610.03,4923.07469749,N,00104.57598018,E,4,10,0.008,56.262,M,47.080,M,1.000,4095*74
$GPGST,090610.03,0.384,0.006,0.005,176.486,0.006,0.005,0.008*57
$GPVTG,90.000,T,90.000,M,0.001,N,0.003,K,D*24
$GPGLL,4923.07469749,N,00104.57598018,E,090610.03,A,D*61
$GPGGA,090610.13,4923.07469749,N,00104.57598066,E,4,10,0.008,56.261,M,47.080,M,1.000,4095*7F
$GPGST,090610.13,0.250,0.006,0.005,176.486,0.006,0.005,0.008*5E
$GPVTG,90.000,T,90.000,M,0.008,N,0.016,K,D*29
$GPGLL,4923.07469749,N,00104.57598066,E,090610.13,A,D*69
$GPGGA,090610.23,4923.07469749,N,00104.57598066,E,4,10,0.008,56.261,M,47.080,M,1.000,4095*7C
$GPGST,090610.23,0.250,0.006,0.005,176.486,0.006,0.005,0.008*5D
$GPVTG,90.000,T,90.000,M,0.007,N,0.013,K,D*23
$GPGLL,4923.07469749,N,00104.57598066,E,090610.23,A,D*6A
$GPGGA,090610.33,4923.07469749,N,00104.57598114,E,4,10,0.008,56.261,M,47.080,M,1.000,4095*79
$GPGST,090610.33,0.250,0.006,0.005,176.486,0.006,0.005,0.008*5C
$GPVTG,90.000,T,90.000,M,0.005,N,0.010,K,D*22
$GPGLL,4923.07469749,N,00104.57598114,E,090610.33,A,D*6F
$GPGGA,090610.43,4923.07469749,N,00104.57598114,E,4,10,0.008,56.261,M,47.080,M,1.000,4095*7E
$GPGST,090610.43,0.250,0.006,0.005,176.486,0.006,0.005,0.008*5B
$GPVTG,90.000,T,90.000,M,0.008,N,0.015,K,D*2A
$GPGLL,4923.07469749,N,00104.57598114,E,090610.43,A,D*68
$GPGGA,090610.53,4923.07469749,N,00104.57598114,E,4,10,0.008,56.261,M,47.080,M,1.000,4095*7F
$GPGST,090610.53,0.250,0.006,0.005,176.486,0.006,0.005,0.008*5A
$GPVTG,90.000,T,90.000,M,0.001,N,0.003,K,D*24
$GPGLL,4923.07469749,N,00104.57598114,E,090610.53,A,D*69
$GPGGA,090610.63,4923.07469749,N,00104.57597875,E,4,10,0.010,56.261,M,47.080,M,1.000,4095*74
$GPGST,090610.63,0.250,0.007,0.007,164.055,0.007,0.007,0.009*51
$GPVTG,90.000,T,90.000,M,0.007,N,0.014,K,D*24
$GPGLL,4923.07469749,N,00104.57597875,E,090610.63,A,D*6B
$GPGGA,090610.73,4923.07469749,N,00104.57597875,E,4,10,0.010,56.261,M,47.080,M,1.000,4095*75
$GPGST,090610.73,0.250,0.007,0.007,164.055,0.007,0.007,0.009*50
$GPVTG,90.000,T,90.000,M,0.004,N,0.008,K,D*2A
$GPGLL,4923.07469749,N,00104.57597875,E,090610.73,A,D*6A
$GPGGA,090610.83,4923.07469749,N,00104.57597875,E,4,10,0.010,56.262,M,47.080,M,1.000,4095*79
$GPGST,090610.83,0.250,0.007,0.007,164.055,0.007,0.007,0.009*5F
$GPVTG,90.000,T,90.000,M,0.004,N,0.007,K,D*25
$GPGLL,4923.07469749,N,00104.57597875,E,090610.83,A,D*65
$GPGGA,090610.93,4923.07469749,N,00104.57597875,E,4,10,0.010,56.262,M,47.080,M,1.000,4095*78
$GPGST,090610.93,0.250,0.007,0.007,164.055,0.007,0.007,0.009*5E
$GPVTG,90.000,T,90.000,M,0.006,N,0.011,K,D*20
$GPGLL,4923.07469749,N,00104.57597875,E,090610.93,A,D*64
$GPZDA,090611.02,17,03,2020,,*6E
$GPGGA,090611.03,4923.07469749,N,00104.57597827,E,4,10,0.010,56.262,M,47.080,M,1.000,4095*77
$GPGST,090611.03,0.250,0.007,0.007,164.055,0.007,0.007,0.009*56
$GPVTG,90.000,T,90.000,M,0.004,N,0.009,K,D*2B
$GPGLL,4923.07469749,N,00104.57597827,E,090611.03,A,D*6B
$GPGGA,090611.13,4923.07469749,N,00104.57597827,E,4,10,0.010,56.262,M,47.080,M,1.000,4095*76
$GPGST,090611.13,0.337,0.007,0.007,164.055,0.007,0.007,0.009*57
$GPVTG,90.000,T,90.000,M,0.001,N,0.003,K,D*24
$GPGLL,4923.07469749,N,00104.57597827,E,090611.13,A,D*6A
$GPGGA,090611.23,4923.07469749,N,00104.57597827,E,4,10,0.010,56.262,M,47.080,M,1.000,4095*75
$GPGST,090611.23,0.337,0.007,0.007,164.055,0.007,0.007,0.009*54
$GPVTG,90.000,T,90.000,M,0.008,N,0.015,K,D*2A
$GPGLL,4923.07469749,N,00104.57597827,E,090611.23,A,D*69
$GPGGA,090611.33,4923.07469749,N,00104.57597780,E,4,10,0.010,56.262,M,47.080,M,1.000,4095*76
$GPGST,090611.33,0.337,0.007,0.007,164.055,0.007,0.007,0.009*55
$GPVTG,90.000,T,90.000,M,0.008,N,0.015,K,D*2A
$GPGLL,4923.07469749,N,00104.57597780,E,090611.33,A,D*6A
$GPGGA,090611.43,4923.07469749,N,00104.57597780,E,4,10,0.010,56.262,M,47.080,M,1.000,4095*71
$GPGST,090611.43,0.337,0.007,0.007,164.055,0.007,0.007,0.009*52
$GPVTG,90.000,T,90.000,M,0.003,N,0.005,K,D*20
$GPGLL,4923.07469749,N,00104.57597780,E,090611.43,A,D*6D
$GPGGA,090611.53,4923.07469749,N,00104.57597970,E,4,10,0.010,56.260,M,47.080,M,1.000,4095*73
$GPGST,090611.53,0.337,0.007,0.007,164.055,0.007,0.007,0.009*53
$GPVTG,90.000,T,90.000,M,0.002,N,0.004,K,D*20
$GPGLL,4923.07469749,N,00104.57597970,E,090611.53,A,D*6D
$GPGGA,090611.63,4923.07469749,N,00104.57597970,E,4,10,0.010,56.260,M,47.080,M,1.000,4095*70
$GPGST,090611.63,0.337,0.007,0.007,164.055,0.007,0.007,0.009*50
$GPVTG,90.000,T,90.000,M,0.000,N,0.001,K,D*27
$GPGLL,4923.07469749,N,00104.57597970,E,090611.63,A,D*6E
$GPGGA,090611.73,4923.07469749,N,00104.57597970,E,4,10,0.010,56.260,M,47.080,M,1.000,4095*71
$GPGST,090611.73,0.337,0.007,0.007,164.055,0.007,0.007,0.009*51
$GPVTG,90.000,T,90.000,M,0.005,N,0.010,K,D*22
$GPGLL,4923.07469749,N,00104.57597970,E,090611.73,A,D*6F
$GPGGA,090611.83,4923.07469749,N,00104.57597970,E,4,10,0.010,56.260,M,47.080,M,1.000,4095*7E
$GPGST,090611.83,0.337,0.007,0.007,164.055,0.007,0.007,0.009*5E
$GPVTG,90.000,T,90.000,M,0.003,N,0.006,K,D*23
$GPGLL,4923.07469749,N,00104.57597970,E,090611.83,A,D*60
$GPGGA,090611.93,4923.07469749,N,00104.57597970,E,4,10,0.010,56.260,M,47.080,M,1.000,4095*7F
$GPGST,090611.93,0.337,0.007,0.007,164.055,0.007,0.007,0.009*5F
$GPVTG,90.000,T,90.000,M,0.002,N,0.003,K,D*27
$GPGLL,4923.07469749,N,00104.57597970,E,090611.93,A,D*61
$GPZDA,090612.02,17,03,2020,,*6D
$GPGGA,090612.03,4923.07469749,N,00104.57597923,E,4,10,0.010,56.260,M,47.080,M,1.000,4095*73
$GPGST,090612.03,0.337,0.007,0.007,164.055,0.007,0.007,0.009*55
$GPVTG,90.000,T,90.000,M,0.006,N,0.012,K,D*23
$GPGLL,4923.07469749,N,00104.57597923,E,090612.03,A,D*6D
$GPGGA,090612.13,4923.07469749,N,00104.57597923,E,4,10,0.010,56.260,M,47.080,M,1.000,4095*72
$GPGST,090612.13,0.284,0.007,0.007,164.055,0.007,0.007,0.009*5D
$GPVTG,90.000,T,90.000,M,0.008,N,0.014,K,D*2B
$GPGLL,4923.07469749,N,00104.57597923,E,090612.13,A,D*6C
$GPGGA,090612.23,4923.07469749,N,00104.57597923,E,4,10,0.010,56.260,M,47.080,M,1.000,4095*71
$GPGST,090612.23,0.284,0.007,0.007,164.055,0.007,0.007,0.009*5E
$GPVTG,90.000,T,90.000,M,0.003,N,0.005,K,D*20
$GPGLL,4923.07469749,N,00104.57597923,E,090612.23,A,D*6F
$GPGGA,090612.33,4923.07469749,N,00104.57597923,E,4,10,0.010,56.260,M,47.080,M,1.000,4095*70
$GPGST,090612.33,0.284,0.007,0.007,164.055,0.007,0.007,0.009*5F
$GPVTG,90.000,T,90.000,M,0.011,N,0.021,K,D*25
$GPGLL,4923.07469749,N,00104.57597923,E,090612.33,A,D*6E
$GPGGA,090612.43,4923.07469749,N,00104.57598114,E,4,10,0.010,56.261,M,47.080,M,1.000,4095*75
$GPGST,090612.43,0.284,0.007,0.007,164.055,0.007,0.007,0.009*58
$GPVTG,90.000,T,90.000,M,0.001,N,0.002,K,D*25
$GPGLL,4923.07469749,N,00104.57598114,E,090612.43,A,D*6A
$GPGGA,090612.53,4923.07469749,N,00104.57598114,E,4,10,0.010,56.261,M,47.080,M,1.000,4095*74
$GPGST,090612.53,0.284,0.007,0.007,164.055,0.007,0.007,0.009*59
$GPVTG,90.000,T,90.000,M,0.006,N,0.011,K,D*20
$GPGLL,4923.07469749,N,00104.57598114,E,090612.53,A,D*6B
$GPGGA,090612.63,4923.07469749,N,00104.57598161,E,4,10,0.010,56.261,M,47.080,M,1.000,4095*75
$GPGST,090612.63,0.284,0.007,0.007,164.055,0.007,0.007,0.009*5A
$GPVTG,90.000,T,90.000,M,0.004,N,0.009,K,D*2B
$GPGLL,4923.07469749,N,00104.57598161,E,090612.63,A,D*6A
$GPGGA,090612.73,4923.07469749,N,00104.57598161,E,4,10,0.010,56.261,M,47.080,M,1.000,4095*74
$GPGST,090612.73,0.284,0.007,0.007,164.055,0.007,0.007,0.009*5B
$GPVTG,90.000,T,90.000,M,0.004,N,0.009,K,D*2B
$GPGLL,4923.07469749,N,00104.57598161,E,090612.73,A,D*6B
$GPGGA,090612.83,4923.07469749,N,00104.57598257,E,4,10,0.010,56.260,M,47.080,M,1.000,4095*7C
$GPGST,090612.83,0.284,0.007,0.007,164.055,0.007,0.007,0.009*54
$GPVTG,90.000,T,90.000,M,0.008,N,0.015,K,D*2A
$GPGLL,4923.07469749,N,00104.57598257,E,090612.83,A,D*62
$GPGGA,090612.93,4923.07469749,N,00104.57598257,E,4,10,0.010,56.260,M,47.080,M,1.000,4095*7D
$GPGST,090612.93,0.284,0.007,0.007,164.055,0.007,0.007,0.009*55
$GPVTG,90.000,T,90.000,M,0.007,N,0.014,K,D*24
$GPGLL,4923.07469749,N,00104.57598257,E,090612.93,A,D*63
$GPZDA,090613.02,17,03,2020,,*6C
$GPGGA,090613.03,4923.07469749,N,00104.57598257,E,4,10,0.010,56.260,M,47.080,M,1.000,4095*75
$GPGST,090613.03,0.284,0.007,0.007,164.055,0.007,0.007,0.009*5D
$GPVTG,90.000,T,90.000,M,0.008,N,0.015,K,D*2A
$GPGLL,4923.07469749,N,00104.57598257,E,090613.03,A,D*6B
$GPGGA,090613.13,4923.07469749,N,00104.57598304,E,4,10,0.010,56.260,M,47.080,M,1.000,4095*73
$GPGST,090613.13,0.146,0.007,0.007,164.055,0.007,0.007,0.009*51
$GPVTG,90.000,T,90.000,M,0.006,N,0.012,K,D*23
$GPGLL,4923.07469749,N,00104.57598304,E,090613.13,A,D*6D
$GPGGA,090613.23,4923.07469749,N,00104.57598304,E,4,10,0.010,56.260,M,47.080,M,1.000,4095*70
$GPGST,090613.23,0.146,0.007,0.007,164.055,0.007,0.007,0.009*52
$GPVTG,90.000,T,90.000,M,0.002,N,0.005,K,D*21
$GPGLL,4923.07469749,N,00104.57598304,E,090613.23,A,D*6E
$GPGGA,090613.33,4923.07469749,N,00104.57598304,E,4,10,0.010,56.259,M,47.080,M,1.000,4095*7B
$GPGST,090613.33,0.146,0.007,0.007,164.055,0.007,0.007,0.009*53
$GPVTG,90.000,T,90.000,M,0.006,N,0.012,K,D*23
$GPGLL,4923.07469749,N,00104.57598304,E,090613.33,A,D*6F
$GPGGA,090613.43,4923.07469749,N,00104.57598304,E,4,10,0.010,56.259,M,47.080,M,1.000,4095*7C
$GPGST,090613.43,0.146,0.007,0.007,164.055,0.007,0.007,0.009*54
$GPVTG,90.000,T,90.000,M,0.006,N,0.011,K,D*20
$GPGLL,4923.07469749,N,00104.57598304,E,090613.43,A,D*68
$GPGGA,090613.53,4923.07469749,N,00104.57598304,E,4,10,0.010,56.259,M,47.080,M,1.000,4095*7D
$GPGST,090613.53,0.146,0.007,0.007,164.055,0.007,0.007,0.009*55
$GPVTG,90.000,T,90.000,M,0.003,N,0.006,K,D*23
$GPGLL,4923.07469749,N,00104.57598304,E,090613.53,A,D*69
$GPGGA,090613.63,4923.07469749,N,00104.57598304,E,4,10,0.010,56.259,M,47.080,M,1.000,4095*7E
$GPGST,090613.63,0.146,0.007,0.007,164.055,0.007,0.007,0.009*56
$GPVTG,90.000,T,90.000,M,0.005,N,0.009,K,D*2A
$GPGLL,4923.07469749,N,00104.57598304,E,090613.63,A,D*6A
$GPGGA,090613.73,4923.07469749,N,00104.57598304,E,4,10,0.010,56.259,M,47.080,M,1.000,4095*7F
$GPGST,090613.73,0.146,0.007,0.007,164.055,0.007,0.007,0.009*57
$GPVTG,90.000,T,90.000,M,0.006,N,0.012,K,D*23
$GPGLL,4923.07469749,N,00104.57598304,E,090613.73,A,D*6B
$GPGGA,090613.83,4923.07469749,N,00104.57598304,E,4,10,0.010,56.259,M,47.080,M,1.000,4095*70
$GPGST,090613.83,0.146,0.007,0.007,164.055,0.007,0.007,0.009*58
$GPVTG,90.000,T,90.000,M,0.003,N,0.005,K,D*20
$GPGLL,4923.07469749,N,00104.57598304,E,090613.83,A,D*64
$GPGGA,090613.93,4923.07469749,N,00104.57598257,E,4,10,0.010,56.259,M,47.080,M,1.000,4095*76
$GPGST,090613.93,0.146,0.007,0.007,164.055,0.007,0.007,0.009*59
$GPVTG,90.000,T,90.000,M,0.007,N,0.014,K,D*24
$GPGLL,4923.07469749,N,00104.57598257,E,090613.93,A,D*62
$GPZDA,090614.02,17,03,2020,,*6B
$GPGGA,090614.03,4923.07469749,N,00104.57598257,E,4,10,0.010,56.259,M,47.080,M,1.000,4095*78
$GPGST,090614.03,0.146,0.007,0.007,164.055,0.007,0.007,0.009*57
$GPVTG,90.000,T,90.000,M,0.001,N,0.002,K,D*25
$GPGLL,4923.07469749,N,00104.57598257,E,090614.03,A,D*6C
$GPGGA,090614.13,4923.07469749,N,00104.57598257,E,4,10,0.010,56.259,M,47.080,M,1.000,4095*79
$GPGST,090614.13,0.207,0.007,0.007,164.055,0.007,0.007,0.009*50
$GPVTG,90.000,T,90.000,M,0.009,N,0.017,K,D*29
$GPGLL,4923.07469749,N,00104.57598257,E,090614.13,A,D*6D
$GPGGA,090614.23,4923.07469749,N,00104.57598018,E,4,10,0.010,56.260,M,47.080,M,1.000,4095*79
$GPGST,090614.23,0.207,0.007,0.007,164.055,0.007,0.007,0.009*53
$GPVTG,90.000,T,90.000,M,0.002,N,0.004,K,D*20
$GPGLL,4923.07469749,N,00104.57598018,E,090614.23,A,D*67
$GPGGA,090614.33,4923.07469749,N,00104.57597970,E,4,10,0.010,56.260,M,47.080,M,1.000,4095*70
$GPGST,090614.33,0.207,0.007,0.007,164.055,0.007,0.007,0.009*52
$GPVTG,90.000,T,90.000,M,0.006,N,0.011,K,D*20
$GPGLL,4923.07469749,N,00104.57597970,E,090614.33,A,D*6E
$GPGGA,090614.43,4923.07469749,N,00104.57597970,E,4,10,0.010,56.260,M,47.080,M,1.000,4095*77
$GPGST,090614.43,0.207,0.007,0.007,164.055,0.007,0.007,0.009*55
$GPVTG,90.000,T,90.000,M,0.004,N,0.008,K,D*2A
$GPGLL,4923.07469749,N,00104.57597970,E,090614.43,A,D*69
$GPGGA,090614.53,4923.07469749,N,00104.57597970,E,4,10,0.010,56.260,M,47.080,M,1.000,4095*76
$GPGST,090614.53,0.207,0.007,0.007,164.055,0.007,0.007,0.009*54
$GPVTG,90.000,T,90.000,M,0.017,N,0.032,K,D*21
$GPGLL,4923.07469749,N,00104.57597970,E,090614.53,A,D*68
$GPGGA,090614.63,4923.07469749,N,00104.57597970,E,4,10,0.010,56.260,M,47.080,M,1.000,4095*75
$GPGST,090614.63,0.207,0.007,0.007,164.055,0.007,0.007,0.009*57
$GPVTG,90.000,T,90.000,M,0.014,N,0.027,K,D*26
$GPGLL,4923.07469749,N,00104.57597970,E,090614.63,A,D*6B
$GPGGA,090614.73,4923.07469940,N,00104.57597970,E,4,10,0.010,56.259,M,47.080,M,1.000,4095*79
$GPGST,090614.73,0.207,0.007,0.007,164.055,0.007,0.007,0.009*56
$GPVTG,14.944,T,14.944,M,0.034,N,0.063,K,D*24
$GPGLL,4923.07469940,N,00104.57597970,E,090614.73,A,D*6D
$GPGGA,090614.83,4923.07469940,N,00104.57598018,E,4,10,0.010,56.259,M,47.080,M,1.000,4095*7E
$GPGST,090614.83,0.207,0.007,0.007,164.055,0.007,0.007,0.009*59
$GPVTG,26.129,T,26.129,M,0.033,N,0.062,K,D*22
$GPGLL,4923.07469940,N,00104.57598018,E,090614.83,A,D*6A
$GPGGA,090614.93,4923.07469940,N,00104.57598114,E,4,10,0.010,56.259,M,47.080,M,1.000,4095*72
$GPGST,090614.93,0.207,0.007,0.007,164.055,0.007,0.007,0.009*58
$GPVTG,23.742,T,23.742,M,0.034,N,0.063,K,D*24
$GPGLL,4923.07469940,N,00104.57598114,E,090614.93,A,D*66
$GPZDA,090615.00,17,03,2020,,*68
$GPGGA,090615.01,4923.07470130,N,00104.57598161,E,4,10,0.010,56.259,M,47.080,M,1.000,4095*7D
$GPGST,090615.01,0.207,0.007,0.007,164.055,0.007,0.007,0.009*52
$GPVTG,15.010,T,15.010,M,0.034,N,0.064,K,D*23
$GPGLL,4923.07470130,N,00104.57598161,E,090615.01,A,D*69
$GPGGA,090615.11,4923.07470321,N,00104.57598257,E,4,10,0.011,56.259,M,47.080,M,1.000,4095*79
$GPGST,090615.11,0.222,0.008,0.007,161.574,0.008,0.008,0.010*50
$GPVTG,20.475,T,20.475,M,0.041,N,0.076,K,D*22
$GPGLL,4923.07470321,N,00104.57598257,E,090615.11,A,D*6C
$GPGGA,090615.21,4923.07470321,N,00104.57598304,E,4,10,0.011,56.259,M,47.080,M,1.000,4095*7D
$GPGST,090615.21,0.222,0.008,0.007,161.574,0.008,0.008,0.010*53
$GPVTG,35.260,T,35.260,M,0.038,N,0.071,K,D*2B
$GPGLL,4923.07470321,N,00104.57598304,E,090615.21,A,D*68
$GPGGA,090615.31,4923.07470512,N,00104.57598400,E,4,10,0.011,56.259,M,47.080,M,1.000,4095*79
$GPGST,090615.31,0.222,0.008,0.007,161.574,0.008,0.008,0.010*52
$GPVTG,40.020,T,40.020,M,0.034,N,0.063,K,D*24
$GPGLL,4923.07470512,N,00104.57598400,E,090615.31,A,D*6C
$GPGGA,090615.41,4923.07470512,N,00104.57598495,E,4,10,0.011,56.259,M,47.080,M,1.000,4095*72
$GPGST,090615.41,0.222,0.008,0.007,161.574,0.008,0.008,0.010*55
$GPVTG,20.222,T,20.222,M,0.048,N,0.090,K,D*23
$GPGLL,4923.07470512,N,00104.57598495,E,090615.41,A,D*67
$GPGGA,090615.51,4923.07470512,N,00104.57598209,E,4,10,0.011,56.257,M,47.080,M,1.000,4095*7E
$GPGST,090615.51,0.222,0.008,0.007,161.574,0.008,0.008,0.010*54
$GPVTG,21.845,T,21.845,M,0.087,N,0.162,K,D*2C
$GPGLL,4923.07470512,N,00104.57598209,E,090615.51,A,D*65
$GPGGA,090615.61,4923.07470893,N,00104.57598447,E,4,10,0.011,56.255,M,47.080,M,1.000,4095*77
$GPGST,090615.61,0.222,0.008,0.007,161.574,0.008,0.008,0.010*57
$GPVTG,23.830,T,23.830,M,0.174,N,0.323,K,D*26
$GPGLL,4923.07470893,N,00104.57598447,E,090615.61,A,D*6E
$GPGGA,090615.71,4923.07471466,N,00104.57598924,E,4,10,0.011,56.252,M,47.080,M,1.000,4095*7E
$GPGST,090615.71,0.222,0.008,0.007,161.574,0.008,0.008,0.010*56
$GPVTG,32.799,T,32.799,M,0.330,N,0.612,K,D*23
$GPGLL,4923.07471466,N,00104.57598924,E,090615.71,A,D*60
$GPGGA,090615.81,4923.07472419,N,00104.57599735,E,4,10,0.011,56.249,M,47.080,M,1.000,4095*7F
$GPGST,090615.81,0.222,0.008,0.007,161.574,0.008,0.008,0.010*59
$GPVTG,29.168,T,29.168,M,0.485,N,0.899,K,D*27
$GPGLL,4923.07472419,N,00104.57599735,E,090615.81,A,D*6B
$GPGGA,090615.91,4923.07473945,N,00104.57600831,E,4,10,0.011,56.247,M,47.080,M,1.000,4095*7D
$GPGST,090615.91,0.222,0.008,0.007,161.574,0.008,0.008,0.010*58
$GPVTG,27.049,T,27.049,M,0.646,N,1.198,K,D*23
$GPGLL,4923.07473945,N,00104.57600831,E,090615.91,A,D*67
$GPZDA,090616.00,17,03,2020,,*6B
$GPGGA,090616.01,4923.07475662,N,00104.57602310,E,4,10,0.011,56.246,M,47.080,M,1.000,4095*70
$GPGST,090616.01,0.222,0.008,0.007,161.574,0.008,0.008,0.010*52
$GPVTG,27.815,T,27.815,M,0.861,N,1.595,K,D*21
$GPGLL,4923.07475662,N,00104.57602310,E,090616.01,A,D*6B
$GPGGA,090616.11,4923.07478141,N,00104.57604265,E,4,10,0.011,56.244,M,47.080,M,1.000,4095*7D
$GPGST,090616.11,0.273,0.008,0.007,161.574,0.008,0.008,0.010*57
$GPVTG,28.429,T,28.429,M,1.136,N,2.104,K,D*24
$GPGLL,4923.07478141,N,00104.57604265,E,090616.11,A,D*64
$GPGGA,090616.21,4923.07481384,N,00104.57606792,E,4,10,0.011,56.242,M,47.080,M,1.000,4095*7A
$GPGST,090616.21,0.273,0.008,0.007,161.574,0.008,0.008,0.010*54
$GPVTG,27.854,T,27.854,M,1.419,N,2.628,K,D*25
$GPGLL,4923.07481384,N,00104.57606792,E,090616.21,A,D*65
$GPGGA,090616.31,4923.07485198,N,00104.57609939,E,4,10,0.011,56.240,M,47.080,M,1.000,4095*72
$GPGST,090616.31,0.273,0.008,0.007,161.574,0.008,0.008,0.010*55
$GPVTG,28.127,T,28.127,M,1.728,N,3.200,K,D*2B
$GPGLL,4923.07485198,N,00104.57609939,E,090616.31,A,D*6F
$GPGGA,090616.41,4923.07489204,N,00104.57613754,E,4,10,0.011,56.235,M,47.080,M,1.000,4095*73
$GPGST,090616.41,0.273,0.008,0.007,161.574,0.008,0.008,0.010*52
$GPVTG,28.349,T,28.349,M,2.037,N,3.772,K,D*21
$GPGLL,4923.07489204,N,00104.57613754,E,090616.41,A,D*6C
$GPGGA,090616.51,4923.07494735,N,00104.57618188,E,4,10,0.011,56.232,M,47.080,M,1.000,4095*72
$GPGST,090616.51,0.273,0.008,0.007,161.574,0.008,0.008,0.010*53
$GPVTG,28.512,T,28.512,M,2.382,N,4.412,K,D*2E
$GPGLL,4923.07494735,N,00104.57618188,E,090616.51,A,D*6A
$GPGGA,090616.61,4923.07500839,N,00104.57623338,E,4,10,0.011,56.230,M,47.080,M,1.000,4095*7D
$GPGST,090616.61,0.273,0.008,0.007,161.574,0.008,0.008,0.010*50
$GPVTG,28.533,T,28.533,M,2.721,N,5.039,K,D*2F
$GPGLL,4923.07500839,N,00104.57623338,E,090616.61,A,D*67
$GPGGA,090616.71,4923.07507896,N,00104.57629156,E,4,10,0.011,56.228,M,47.080,M,1.000,4095*77
$GPGST,090616.71,0.273,0.008,0.007,161.574,0.008,0.008,0.010*51
$GPVTG,28.529,T,28.529,M,3.080,N,5.704,K,D*2B
$GPGLL,4923.07507896,N,00104.57629156,E,090616.71,A,D*64
$GPGGA,090616.81,4923.07515907,N,00104.57635736,E,4,10,0.011,56.227,M,47.080,M,1.000,4095*70
$GPGST,090616.81,0.273,0.008,0.007,161.574,0.008,0.008,0.010*5E
$GPVTG,28.382,T,28.382,M,3.425,N,6.344,K,D*23
$GPGLL,4923.07515907,N,00104.57635736,E,090616.81,A,D*6C
$GPGGA,090616.91,4923.07524681,N,00104.57643032,E,4,10,0.011,56.225,M,47.080,M,1.000,4095*72
$GPGST,090616.91,0.273,0.008,0.007,161.574,0.008,0.008,0.010*5F
$GPVTG,28.500,T,28.500,M,3.790,N,7.019,K,D*24
$GPGLL,4923.07524681,N,00104.57643032,E,090616.91,A,D*6C
$GPZDA,090617.00,17,03,2020,,*6A
$GPGGA,090617.01,4923.07534408,N,00104.57651042,E,4,10,0.011,56.223,M,47.080,M,1.000,4095*7A
$GPGST,090617.01,0.273,0.008,0.007,161.574,0.008,0.008,0.010*57
$GPVTG,28.551,T,28.551,M,4.141,N,7.669,K,D*28
